Name,IATA code,UN code,Time zone,Latitude,Longitude,Country
WASU,WSU,WSU,Pacific/Port_Moresby,-6,147.25,Papua New Guinea
NARACOORTE,NAC,NAC,Australia/Adelaide,-36.96667,140.5833,Australia
NARRABRI,NAA,NAA,Australia/Sydney,-30.33333,149.8333,Australia
Gatton,,GAN,Australia/Brisbane,-27.33,152.17,Australia
GAN ISLAND,GAN,GAN,Indian/Maldives,0.5,73.26667,Maldives
NIZHNEKAMSK,NBC,NBC,Europe/Moscow,55.56667,52.1,Russian Federation
BARRANCO MINAS,NBB,NBB,America/Bogota,3.33333,-70.33333,Colombia
NAMBAIYUFA,NBA,NBA,Pacific/Port_Moresby,-6.25,145.2333,Papua New Guinea
STAR HARBOUR,NAZ,NAZ,Pacific/Guadalcanal,-10.38667,162.1219,Solomon Islands
BARBERS POINT,NAX,NAX,Pacific/Honolulu,21.31667,-158,United States
NARATHIWAT,NAW,NAW,Asia/Bangkok,6.41667,101.8,Thailand
NEVSEHIR,NAV,NEV,Europe/Istanbul,38.76667,34.54167,Turkey
Nagaur,,NAU,Asia/Calcutta,27.12,73.44,India
NATAL,NAT,NAT,America/Fortaleza,-5.83333,-35.2,Brazil
NASSAU,NAS,NAS,America/Nassau,25.05,-77.46667,Bahamas
NARE,NAR,NAR,America/Bogota,6.2,-74.61667,Colombia
QAANAAQ,NAQ,NAQ,America/Thule,76.5,-69,Greenland
NAPLES,NAP,NAP,Europe/Rome,40.88444,14.29083,Italy
NANCHONG,NAO,NAO,Asia/Chongqing,30.8,106.0667,China
NADI,NAN,NAN,Pacific/Fiji,-17.75,177.45,Fiji
NAMLEA,NAM,NAM,Asia/Jayapura,-3.3,127.1,Indonesia
Biberach,,BIB,Europe/Berlin,48.2,8.02,Germany
Bielsko-Biala,,BIB,Europe/Warsaw,,,Poland
NALCHIK,NAL,NAL,Europe/Moscow,43.53333,43.7,Russian Federation
NAKHON RATCHASIMA,NAK,NAK,Asia/Bangkok,14.96667,102.1167,Thailand
NAKCHIVAN,NAJ,NAJ,Asia/Baku,39.19028,45.45889,Azerbaijan
ANNAI,NAI,NAI,America/Guyana,3.75,-59,Guyana
TAHUNA,NAH,NAH,Asia/Makassar,-1.18333,123.8167,Indonesia
NAGPUR,NAG,NAG,Asia/Calcutta,21.08333,79.05,India
BANAINA,NAF,NAF,Asia/Makassar,2.75,117.05,Indonesia
NATITINGOU,NAE,NAE,Africa/Porto-Novo,10.31667,1.36667,Benin
MACANAL,NAD,NAD,America/Bogota,2.56667,-67.58333,Colombia
MONKEY BAY,MYZ,MYZ,Africa/Blantyre,-14.1,34.53333,Malawi
MIRI,MYY,MYY,Asia/Kuala_Lumpur,4.45,114,Malaysia
MENYAMYA,MYX,MYX,Pacific/Port_Moresby,-7.2,146.0167,Papua New Guinea
MTWARA,MYW,MYW,Africa/Dar_es_Salaam,-10.35,40.18333,"Tanzania, United Republic of"
MARYSVILLE,MYV,MYV,America/Los_Angeles,39.1,-121.5667,United States
MEKORYUK,MYU,MYU,America/Anchorage,60.38333,-166.2,United States
MYITKYINA,MYT,MYT,Asia/Rangoon,25.46667,97.43333,Myanmar
MYRTLE BEACH,MYR,MYR,America/New_York,33.7,-78.96667,United States
MYSORE,MYQ,MYQ,Asia/Calcutta,12.3,76.65,India
MARY,MYP,MYP,Asia/Ashgabat,37.6,61.83333,Turkmenistan
MYROODAH STATION,MYO,MYO,Australia/Perth,-18.2,124.2,Australia
MARIB,MYN,MYN,Asia/Aden,15.48333,45.33333,Yemen
MONKEY MOUNTAIN,MYM,MYM,America/Guyana,4.6,-59.63333,Guyana
MCCALL,MYL,MYL,America/Denver,45.88333,-116.1,United States
MAY CREEK,MYK,MYK,America/Anchorage,61.36667,-142.6833,United States
MATSUYAMA,MYJ,MYJ,Asia/Tokyo,33.81667,132.7,Japan
MURRAY ISLAND,MYI,MYI,TimeZoneNotFound,-9.93333,144.0167,Australia
MARBLE CANYON,MYH,MYH,America/Phoenix,36.81667,-111.65,United States
MAYAGUANA,MYG,MYG,America/Nassau,22.36667,-73.01667,Bahamas
MIYAKEJIMA,MYE,MYE,Asia/Tokyo,34.06667,139.5667,Japan
MALINDI,MYD,MYD,Africa/Nairobi,-3.25,40.08333,Kenya
MARACAY,MYC,MYC,America/Caracas,10.25,-67.6,"Venezuela, Bolivarian Republic of"
MAYUMBA,MYB,MYB,Africa/Libreville,-3.45,10.68333,Gabon
MORUYA,MYA,MYA,Australia/Sydney,-35.9,150.1333,Australia
MARION,MZZ,MZZ,America/New_York,40.48333,-85.68333,United States
MOSSEL BAY,MZY,MZY,Africa/Johannesburg,-34.18333,22.13333,South Africa
MENA,MZX,MZX,Africa/Addis_Ababa,6.35,39.71667,Ethiopia
MECHERIA,MZW,MZW,Africa/Algiers,33.52194,-0.28306,Algeria
Columbia,,YNJ,America/New_York,40.56,-75.06,United States
MULU,MZV,MZV,Asia/Kuala_Lumpur,4.05,114.9333,Malaysia
MUZAFFARPUR,MZU,MZU,Asia/Calcutta,26.33333,85.5,India
MAZATLAN,MZT,MZT,America/Mazatlan,23.23333,-106.4167,Mexico
MAZAR-E SHARIF,MZR,MZR,Asia/Kabul,36.7,67.23333,Afghanistan
MKUZE,MZQ,MZQ,Africa/Johannesburg,-27.16667,32,South Africa
Canton Baiyun,CAN,,,,,China
MOTUEKA,MZP,MZP,Pacific/Auckland,-41.11667,173,New Zealand
MANZANILLO,MZO,MZO,America/Havana,21.58333,-77.08333,Cuba
MINJ,MZN,MZN,Pacific/Port_Moresby,-5.86667,144.6667,Papua New Guinea
MANIZALES,MZL,MZL,America/Bogota,5.08333,-75.66667,Colombia
MARAKEI,MZK,MZK,Pacific/Tarawa,1.98333,173.6667,Kiribati
MARANA,MZJ,MZJ,America/Phoenix,32.83333,-109.7167,United States
MOPTI,MZI,MZI,Africa/Bamako,14.5,-4.2,Mali
AMASYA,MZH,MZH,Europe/Istanbul,40.86667,35.63333,Turkey
MAGONG,MZG,MZG,Asia/Taipei,23.53333,119.5833,"Taiwan, Province of China"
MZAMBA,MZF,MZF,Africa/Johannesburg,-31.1,30.16667,South Africa
MANATEE,MZE,MZE,America/Guatemala,17.25,-89.6,Belize
MENDEZ,MZD,MZD,America/Guayaquil,-2.71667,-78.31667,Ecuador
MITZIC,MZC,MZC,Africa/Libreville,0.78333,11.56667,Gabon
MOCIMBOA DA PRAIA,MZB,MZB,Africa/Maputo,-11.35,40.35,Mozambique
Meridian,,MZA,America/Chicago,,,United States
MULTAN,MUX,MUX,Asia/Karachi,30.2,71.41667,Pakistan
MASCARA,MUW,MUW,Africa/Algiers,35.75,0.01667,Algeria
Le Luc,,LEL,Europe/Paris,,,France
MOUNT UNION,MUU,MUU,America/New_York,40.38333,-77.88333,United States
MUSCATINE,MUT,MUT,America/Chicago,41.35,-91.13333,United States
MINAMITORISHIMA,MUS,MUS,Asia/Tokyo,26.53333,142.15,Japan
MARUDI,MUR,MUR,Asia/Kuala_Lumpur,4.18333,114.3167,Malaysia
MUCCAN STATION,MUQ,MUQ,Europe/Berlin,-20.63333,120.0333,Australia
MULGA PARK,MUP,MUP,Australia/Darwin,-25.85,131.6,Australia
MOUNTAIN HOME,MUO,MUO,America/Denver,43.04333,-115.8725,United States
MATURIN,MUN,MUN,America/Caracas,9.75,-63.16667,"Venezuela, Bolivarian Republic of"
Mountain Home,,MUM,America/Denver,,,United States
MAUKE ISLAND,MUK,MUK,Pacific/Rarotonga,-20.15,-157.3833,Cook Islands
MUI,MUJ,MUJ,Africa/Addis_Ababa,6,36,Ethiopia
FORT INDIANTOWN,MUI,MUI,America/New_York,40.43472,-76.56917,United States
MERSA MATRUH,MUH,MUH,Africa/Cairo,31.33333,27.21667,Egypt
MULEGE,MUG,MUG,America/Mazatlan,26.88333,-112,Mexico
BARQUISIMETO,BRM,BRM,America/Caracas,10.06667,-69.33333,"Venezuela, Bolivarian Republic of"
MUTING,MUF,MUF,Asia/Jayapura,-7.38333,140.3333,Indonesia
KAMUELA,MUE,MUE,Pacific/Honolulu,20,-155.6833,United States
MUEDA,MUD,MUD,Africa/Maputo,-11.65,39.55,Mozambique
Slovenj Gradec,,SLG,Europe/Ljubljana,46.31,15.05,Slovenia
MUNICH,MUC,MUC,Europe/Berlin,48.35389,11.78611,Germany
MAUN,MUB,MUB,Africa/Gaborone,-19.96667,23.43333,Botswana
MUNDA,MUA,MUA,Pacific/Guadalcanal,-8.33333,157.4167,Solomon Islands
MASADA,MTZ,MTZ,Asia/Jerusalem,31.33333,35.38333,Israel
MONTERREY,MTY,MTY,America/Mexico_City,25.86667,-100.25,Mexico
MARTHAS VINEYARD,MVY,MVY,America/New_York,41.38333,-70.61667,United States
MINVOUL,MVX,MVX,Africa/Libreville,2.15,12.13333,Gabon
BURLINGTON MT VERNON,MVW,MVW,America/Los_Angeles,48.41667,-122.3333,United States
MEGEVE,MVV,MVV,Europe/Paris,45.82083,6.65222,France
MUSGRAVE,MVU,MVU,Australia/Brisbane,-14.16667,143.6833,Australia
Triengen,,TNG,Europe/Zurich,47.14,8.05,Switzerland
MATAIVA,MVT,MVT,Pacific/Tahiti,-14.88333,-148.6667,French Polynesia
MUCURI,MVS,MVS,America/Fortaleza,-18.08333,-39.56667,Brazil
MAROUA,MVR,MVR,Africa/Douala,10.45,14.25,Cameroon
MOGILEV,MVQ,MVQ,Europe/Minsk,53.95,30.13333,Belarus
MITU,MVP,MVP,America/Bogota,1.13333,-70.05,Colombia
MONGO,MVO,MVO,Africa/Ndjamena,12.2,18.78333,Chad
MT VERNON,MVN,MVN,America/Chicago,38.31667,-88.86667,United States
KAYENTA,MVM,MVM,America/Denver,36.73333,-110.2833,United States
STOWE,MVL,MVL,America/New_York,44.58333,-72.61667,United States
MULKA,MVK,MVK,Australia/Adelaide,-28.35,138.65,Australia
MANETAI,MVI,MVI,Pacific/Port_Moresby,-6,155.3333,Papua New Guinea
Oldenburg,,OLO,Europe/Berlin,53.1,8.12,Germany
MACKSVILLE,MVH,MVH,Australia/Sydney,-30.71667,152.9167,Australia
MEVANG,MVG,MVG,Africa/Libreville,0.08333,11.08333,Gabon
MOSSORO,MVF,MVF,America/Fortaleza,-5.18333,-37.33333,Brazil
MONTEVIDEO,MVE,MVE,America/Chicago,44.95,-95.71667,United States
MONTEVIDEO,MVD,MVD,America/Montevideo,-34.83833,-56.03083,Uruguay
MONROEVILLE,MVC,MVC,America/Chicago,31.65,-91.73333,United States
FRANCEVILLE,MVB,MVB,Africa/Libreville,0.66667,11.01667,Gabon
MYVATN,MVA,MVA,Atlantic/Reykjavik,65.65583,-16.91806,Iceland
MUSOMA,MUZ,MUZ,Africa/Dar_es_Salaam,-1.5,33.8,"Tanzania, United Republic of"
MOUYONDZI,MUY,MUY,Africa/Brazzaville,-3.98333,13.91667,Congo
MWANZA,MWZ,MWZ,Africa/Dar_es_Salaam,-2.45,32.93333,"Tanzania, United Republic of"
MIRANDA DOWNS,MWY,MWY,Australia/Brisbane,-17.36667,141.8667,Australia
MUAN,MWX,MWX,Asia/Seoul,34.99139,126.3828,"Korea, Republic of"
MONDULKIRI,MWV,MWV,Asia/Phnom_Penh,12.45,107.1833,Cambodia
MUSSAU ISLAND,MWU,MWU,Pacific/Port_Moresby,-1.5,149.6667,Papua New Guinea
MOOLAWATANA,MWT,MWT,Australia/Adelaide,-29.91667,139.7167,Australia
MOUNT WILSON,MWS,MWS,America/Denver,33.16667,-105.8333,United States
MOTSWARI,MWR,MWR,null,-30.41667,-25.2,South Africa
MAGWAY,MWQ,MWQ,Asia/Rangoon,20.16667,94.93333,Myanmar
Mountain,,MWP,Asia/Katmandu,,,Nepal
MIDDLETOWN,MWO,MWO,America/New_York,39.51667,-84.41667,United States
MWADUI,MWN,MWN,Africa/Dar_es_Salaam,-3.55,33.6,"Tanzania, United Republic of"
WINDOM,MWM,MWM,America/Chicago,43.91667,-95.1,United States
MINERAL WELLS,MWL,MWL,America/Chicago,32.78333,-98.06667,United States
MATAK,MWK,MWK,TimeZoneNotFound,3.28333,106.3,Indonesia
MATTHEWS RIDGE,MWJ,MWJ,America/Guyana,6.55,-59.9,Guyana
MARAMUNI,MWI,MWI,Pacific/Port_Moresby,-9.5,147.1167,Papua New Guinea
MOSES LAKE,MWH,MWH,America/Los_Angeles,47.08333,-119.25,United States
MARAWAKA,MWG,MWG,Pacific/Port_Moresby,-6.96667,145.9,Papua New Guinea
MAEWO ISLAND,MWF,MWF,Pacific/Efate,-15,168.0833,Vanuatu
MEROWE,MWE,MWE,Africa/Khartoum,18.66667,31.8,Sudan
MIANWALI,MWD,MWD,Asia/Karachi,32.58333,71.55,Pakistan
MORAWA,MWB,MWB,Australia/Perth,-29.2,116.0167,Australia
MARION,MWA,MWA,America/Chicago,37.75,-89.01667,United States
FERA ISLAND,FRE,FRE,Pacific/Guadalcanal,-8.1,159.5833,Solomon Islands
MASVINGO,MVZ,MVZ,Africa/Harare,-20.06667,30.83333,Zimbabwe
MEIXIAN,MXZ,MXZ,Asia/Chongqing,24.35,116.1333,China
MCCARTHY,MXY,MXY,America/Anchorage,61.41667,-142.9167,United States
MORA,MXX,,Europe/Stockholm,61,14.55,Sweden
MANDALGOVI,MXW,MXW,Asia/Ulaanbaatar,45.75,106.2,Mongolia
MORON,MXV,MXV,Asia/Ulaanbaatar,49.63333,100.1667,Mongolia
MULLEWA,MXU,MXU,Australia/Perth,-28.55,115.5167,Australia
MAINTIRANO,MXT,MXT,Indian/Antananarivo,-18.05,44.03333,Madagascar
MAOTA,MXS,MXS,Pacific/Apia,-13.73333,-172.25,Samoa
MYRHOROD,MXR,MXR,Europe/Kiev,49.96667,33.6,Ukraine
MONTICELLO,MXO,MXO,America/New_York,41.65,-74.68333,United States
MORLAIX,MXN,MXN,Europe/Paris,48.60083,-3.81667,France
MOROMBE,MXM,MXM,Indian/Antananarivo,-21.75,43.36667,Madagascar
MEXICALI,MXL,MXL,America/Tijuana,32.65,-115.45,Mexico
MINDIK,MXK,MXK,Pacific/Port_Moresby,-6.21667,147.6167,Papua New Guinea
MINNA,MXJ,MXJ,Africa/Lagos,9.61667,6.53333,Nigeria
MATI,MXI,MXI,Europe/Tirane,41.65,19.56667,Philippines
MORO,MXH,MXH,Pacific/Port_Moresby,-6.3,144.15,Papua New Guinea
MAKASSAR,UPG,UPG,TimeZoneNotFound,-5.06667,119.55,Indonesia
MARLBOROUGH,MXG,MXG,America/New_York,42.33333,-71.55,United States
MAXTON,MXE,MXE,America/New_York,34.73333,-79.35,United States
MARION DOWNS,MXD,MXD,Australia/Brisbane,-23.5,139.6667,Australia
MONTICELLO,MXC,MXC,America/Denver,37.86667,-109.35,United States
MASAMBA,MXB,MXB,TimeZoneNotFound,-2.53333,120.3333,Indonesia
MANILA,MXA,MXA,America/Denver,40.98333,-109.7167,United States
MARQUETTE,MQT,MQT,America/New_York,46.53333,-87.56667,United States
MUSTIQUE,MQS,MQS,America/St_Vincent,13.13333,-61.2,Saint Vincent and the Grenadines
MOSQUERA,MQR,MQR,America/Bogota,2.66667,-78.33333,Colombia
MOUNDOU,MQQ,MQQ,Africa/Ndjamena,8.63333,16.06667,Chad
MO I RANA,MQN,MQN,Europe/Oslo,66.31667,14,Norway
MARDIN,MQM,,Europe/Istanbul,40.62306,37.21528,Turkey
MILDURA,MQL,MQL,Australia/Hobart,-34.23333,142.0833,Australia
SAN MATIAS,MQK,MQK,America/La_Paz,-16.33444,-58.38556,"Bolivia, Plurinational State of"
Merkez Apt/Balikesir,MQJ,MQJ,TimeZoneUnrecognized,,,Turkey
QUINCY,MQI,MQI,America/New_York,42.25,-71,United States
MINACU,MQH,MQH,America/Sao_Paulo,-13.53333,-48.23333,Brazil
MIDGARD,MQG,MQG,Africa/Windhoek,-22.08333,17.36667,Namibia
MAGNITOGORSK,MQF,MQF,Asia/Yekaterinburg,53.45,59.06667,Russian Federation
MARQUA,MQE,MQE,Australia/Darwin,-22.81667,137.35,Australia
MAQUINCHAO,MQD,MQD,America/Cordoba,-41.25,-68.73333,Argentina
MIQUELON,MQC,MQC,America/Miquelon,47.13333,-56.38333,Saint Pierre and Miquelon
Barssel,,DBS,Europe/Berlin,53.1,7.45,Germany
OKSIBIL,OKL,OKL,Asia/Jayapura,-3.68333,137.4833,Indonesia
MACOMB,MQB,MQB,America/Chicago,40.45,-90.61667,United States
MANDORA STATION,MQA,MQA,Australia/Perth,-19.83333,120.8333,Australia
MT PLEASANT,MPZ,MPZ,America/Chicago,40.96667,-91.55,United States
MARIPASOULA,MPY,MPY,America/Cayenne,3.71667,-54.06667,French Guiana
MIYANMIN,MPX,MPX,Pacific/Port_Moresby,-4.9,141.6167,Papua New Guinea
MARIUPOL,MPW,MPW,Europe/Kiev,47.1,37.55,Ukraine
MONTPELIER,MPV,MPV,America/New_York,44.2,-72.56667,United States
MABUA,MPU,MPU,America/Panama,-2.91667,151.4167,Papua New Guinea
MALIANA,MPT,MPT,Asia/Makassar,-8.16667,125,Timor-Leste
MAURITIUS,MRU,MRU,Indian/Mauritius,-20.43333,57.66667,Mauritius
MOROAK,MRT,MRT,Australia/Darwin,-14.81667,133.7,Australia
Madison,,MS4,America/New_York,38.23,-78.15,United States
Ceske Budejovice,,CKB,Europe/Prague,48.59,14.28,Czech Republic
MARSEILLE,MRS,MRS,Europe/Paris,43.43667,5.215,France
MACARA,MRR,MRR,America/Guayaquil,-4.38333,-79.93333,Ecuador
MARINDUQUE ISLAND,MRQ,MRQ,Asia/Manila,13.35,121.8167,Philippines
MARLA,MRP,MRP,Australia/Adelaide,-27.03333,133.1167,Australia
MASTERTON,MRO,MRO,Pacific/Auckland,-40.96667,175.6333,New Zealand
MORGANTON,MRN,MRN,America/New_York,35.75,-81.71667,United States
MANARI,MRM,MRM,Pacific/Port_Moresby,-9.2,147.6,Papua New Guinea
MINERS LAKE,MRL,MRL,Australia/Brisbane,-20.06667,145.5833,Australia
MARCO ISLAND,MRK,MRK,America/New_York,25.93333,-81.71667,United States
URIMAN,URM,URM,America/Caracas,5.33333,-62.75,"Venezuela, Bolivarian Republic of"
MARCALA,MRJ,MRJ,America/Tegucigalpa,14.13333,-88.03333,Honduras
MAY RIVER,MRH,MRH,Pacific/Port_Moresby,-9.5,147.1167,Papua New Guinea
Gunzenhausen,,GUH,Europe/Berlin,,,Germany
MAREEBA,MRG,MRG,Australia/Brisbane,-17,145.4333,Australia
MARFA,MRF,MRF,America/Chicago,30.23333,-103.8667,United States
MASAI MARA,MRE,MRE,Africa/Nairobi,-1.18333,35.1,Kenya
MERIDA,MRD,MRD,America/Caracas,8.58333,-71.16667,"Venezuela, Bolivarian Republic of"
COLUMBIA,MRC,MRC,America/Chicago,35.61667,-87.03333,United States
MARTINSBURG,MRB,MRB,America/New_York,39.46667,-77.98333,United States
MISURATA,MRA,MRA,Africa/Tripoli,32.33333,15.06667,Libya
MARGARET RIVER,MQZ,,Australia/Perth,-18.61667,126.8833,Australia
SMYRNA,MQY,MQY,America/Chicago,35.98333,-86.51667,United States
MEKELE,MQX,MQX,Africa/Addis_Ababa,13.46667,39.51667,Ethiopia
MC RAE,MQW,MQW,America/New_York,34.78333,-84.96667,United States
MOSTAGANEM,MQV,,Africa/Algiers,35.9,0.98333,Algeria
MARIQUITA,MQU,MQU,America/Bogota,5.21667,-74.88333,Colombia
MONTICELLO,MSV,MSV,America/New_York,41.61667,-74.7,United States
MASERU,MSU,MSU,Africa/Maseru,-29,27.5,Lesotho
MAASTRICHT,MST,MST,Europe/Amsterdam,50.91667,5.78333,Netherlands
MASSENA,MSS,MSS,America/New_York,44.93333,-74.85,United States
MUS,MSR,MSR,Europe/Istanbul,38.75,41.5,Turkey
MINSK,MSQ,MSQ,Europe/Minsk,53.8825,28.03083,Belarus
MINNEAPOLIS,MSP,STP,America/Chicago,44.9,-93.21667,United States
MISSOULA,MSO,MSO,America/Denver,46.91667,-114.0833,United States
MADISON,MSN,MSN,America/Chicago,43.13333,-89.33333,United States
MASI-MANIMBA,MSM,MSM,Africa/Kinshasa,-4.83333,17.85,"Congo, the Democratic Republic of the"
MUSCLE SHOALS,MSL,SHF,America/Chicago,34.75,-87.61667,United States
MISAWA,MSJ,MSJ,Asia/Tokyo,40.7,141.3833,Japan
MASALEMBO,MSI,MSI,Indian/Maldives,-5.5,114.4333,Indonesia
MASIRAH,MSH,MSH,Asia/Muscat,20.16667,58.25,Oman
MATSAILE,MSG,MSG,Africa/Maseru,-29.73333,28.75,Lesotho
MOUNT SWAN,MSF,MSF,Australia/Darwin,-22.66667,134.9167,Australia
MANSTON-KENT INTL,MSE,MSE,Europe/London,51.36667,1.35,United Kingdom
MT PLEASANT,MSD,MSD,America/Denver,39.51667,-111.4667,United States
MESA,MSC,MSC,America/Phoenix,33.45,-111.7167,United States
MUSKRAT DAM,MSA,MSA,America/Winnipeg,53.83333,-92,Canada
MOREE,MRZ,MRZ,Australia/Sydney,-29.5,149.8333,Australia
MONTEREY CARMEL,MRY,MRY,America/Los_Angeles,36.58333,-121.85,United States
BANDAR MAHSHAHR,MRX,MRX,Asia/Tehran,30.56667,49.16667,"Iran, Islamic Republic of"
MARIBO,MRW,,Europe/Copenhagen,54.69944,11.44,Denmark
Marysville,,MRV,America/Los_Angeles,,,United States
MANITOWOC,MTW,MTW,America/Chicago,44.11667,-87.66667,United States
MOTA LAVA ISLAND,MTV,MTV,Pacific/Efate,-13.81667,167.7,Vanuatu
MONTEPUEZ,MTU,MTU,Africa/Maputo,-13.11667,39,Mozambique
MINATITLAN,MTT,MTT,America/Mexico_City,18,-94.53333,Mexico
MANZINI,MTS,MTS,Africa/Mbabane,-26.51667,31.3,Swaziland
MONTERIA,MTR,MTR,America/Bogota,8.76667,-75.86667,Colombia
MITCHELL,MTQ,MTQ,Australia/Brisbane,-26.58333,147.9667,Australia
MONTAUK,MTP,MTP,America/New_York,41.08333,-71.91667,United States
Montalvo,,MTO,America/Guayaquil,-1.48,-79.2,Ecuador
METLAKATLA,MTM,MTM,America/Anchorage,55.13333,-131.5833,United States
Millington,,MTL,America/Chicago,,,United States
MAKIN,MTK,MTK,Pacific/Tarawa,3.11667,172.8,Kiribati
MONTROSE,MTJ,MTJ,America/Denver,38.5,-107.8833,United States
MOSTEIROS,MTI,MTI,Atlantic/Cape_Verde,15,-24.43333,Cape Verde
MARATHON,MTH,MTH,America/New_York,24.71667,-81.05,United States
MATO GROSSO,MTG,MTG,America/Campo_Grande,-15.01667,-60.01667,Brazil
Mauterndorf,,MTF,Europe/Vienna,47.08,13.4,Austria
MONTE ALEGRE,MTE,MTE,America/Boa_Vista,-2.01667,-54.06667,Brazil
MOUNT SANDFORD STATION,MTD,MTD,Australia/Darwin,-16.98333,130.55,Australia
MT CLEMENS,MTC,MTC,America/Chicago,44.98333,-93.21667,United States
MONTELIBANO,MTB,MTB,America/Bogota,8.08333,-75.33333,Colombia
MATAMATA,MTA,MTA,Pacific/Auckland,-37.73333,175.75,New Zealand
NAMIBE,MSZ,MSZ,Africa/Luanda,-15.2,12.15,Angola
NEW ORLEANS,MSY,MSY,America/Chicago,29.98333,-90.26667,United States
MOSSENDJO,MSX,MSX,Africa/Brazzaville,-2.95,12.73333,Congo
MASSAWA,MSW,MSW,Africa/Asmera,15.6,39.43333,Eritrea
SINOP,NOP,,Europe/Istanbul,42.03333,35.15,Turkey
NAORO,NOO,NOO,Pacific/Port_Moresby,-9.08333,147.0333,Papua New Guinea
NONOUTI,NON,NON,TimeZoneNotFound,-0.66667,174.35,Kiribati
NOMAD RIVER,NOM,NOM,Pacific/Port_Moresby,-6.65,142.1167,Papua New Guinea
NOVA XAVANTINA,NOK,NOK,America/Campo_Grande,-14.41667,-52.91667,Brazil
NOYABRSK,NOJ,NOJ,Asia/Yekaterinburg,63.5,75,Russian Federation
NOVOROSSIYSK,NOI,NOI,TimeZoneNotFound,44.75,37.75,Russian Federation
NOGALES,NOG,NOG,America/Hermosillo,18.81667,-97.16667,Mexico
NORDEN,NOD,NOD,Europe/Berlin,53.63306,7.18944,Germany
KNOCK,NOC,NOC,Europe/Dublin,53.91028,-8.81861,Ireland
NOSARA,NOB,NOB,America/Costa_Rica,9.8,-85.53333,Costa Rica
NOWRA,NOA,NOA,Australia/Sydney,-34.93333,150.5667,Australia
NANYANG,NNY,,Asia/Chongqing,33,112.5333,China
NUNUKAN,NNX,NNX,Asia/Makassar,4.15,117.65,Indonesia
NANUQUE,NNU,NNU,America/Sao_Paulo,-17.78333,-40.68333,Brazil
NAN,NNT,NNT,Asia/Bangkok,18.8,100.7833,Thailand
Newport News,,NNS,America/New_York,36.58,-76.25,United States
SPIDDAL,NNR,NNR,Europe/Dublin,53.23056,-9.46778,Ireland
NOVO PROGRESSO,NPR,,America/Boa_Vista,-7.12583,-55.40083,Brazil
NAPPERBY,NPP,NPP,Australia/Darwin,-22.63333,132.8333,Australia
NANGAPINOH,NPO,NPO,Asia/Jakarta,-0.36667,111.75,Indonesia
Nakhon Pathom,,NPM,Asia/Bangkok,13.49,100.03,Thailand
NEW PLYMOUTH,NPL,NPL,Pacific/Auckland,-39.00861,174.1792,New Zealand
NEPHI,NPH,NPH,America/Denver,39.73333,-111.8667,United States
NIPA,NPG,NPG,Pacific/Port_Moresby,-6.13333,143.3667,Papua New Guinea
NAPIER HASTINGS,NPE,NPE,Pacific/Auckland,-39.46667,176.8667,New Zealand
NOVOKUZNETSK,NOZ,NOZ,Asia/Omsk,53.75,87.1,Russian Federation
HUAMBO,NOV,NOV,Africa/Luanda,-12.78333,15.76667,Angola
NOUMEA,NOU,NOU,Pacific/Noumea,-22.01667,166.2167,New Caledonia
NOVATO,NOT,NOT,America/Los_Angeles,38.1,-122.5667,United States
NOSY BE,NOS,NOS,Indian/Antananarivo,-13.31667,48.31667,Madagascar
NORDFJORDUR,NOR,NOU,Atlantic/Reykjavik,65.13194,-13.74639,Iceland
CARNOT,CRF,CRF,Africa/Bangui,4.93333,15.9,Central African Republic
NEUQUEN,NQN,NQN,America/Cordoba,-38.91667,-68.08333,Argentina
NIQUELANDIA,NQL,NQL,America/Sao_Paulo,-14.45,-48.45,Brazil
KINGSVILLE,NQI,NQI,America/Chicago,27.50722,-97.80944,United States
NAPUKA,NAU,NAU,Pacific/Tahiti,-14.16667,-141.5833,French Polynesia
SAN PEDRO DE URABA,NPU,NPU,America/Bogota,5.08333,-75.53333,Colombia
NEWPORT,NPT,NPT,America/New_York,41.6,-71.41667,United States
IMPERIAL BEACH,NRS,NRS,America/Los_Angeles,32.56667,-117.1167,United States
CEIBA,NRR,NRR,America/Puerto_Rico,18.46667,-66.16667,Puerto Rico
NARA,NRM,NRM,Africa/Bamako,15.25,-7.28333,Mali
NORTH RONALDSAY,NRL,NRS,Europe/London,59.36667,-2.43333,United Kingdom
NORRKOPING,NRK,,Europe/Stockholm,58.61667,16.08333,Sweden
AFTON,NRI,NRI,America/Chicago,36.56667,-94.85,United States
NARROGIN,NRG,NRG,Australia/Perth,-32.93333,117.1667,Australia
NAMROLE,NRE,NRE,Asia/Jakarta,-6.13333,106.6667,Indonesia
NORDERNEY,NRD,NRD,Europe/Berlin,53.7,7.15,Germany
CROWS LANDING,NRC,NRC,America/Los_Angeles,37.4,-121.0667,United States
MAYPORT,NRB,NRB,America/New_York,27.5,-81.43333,United States
NARRANDERA,NRA,NRA,Australia/Sydney,-34.7,146.5167,Australia
Nordholz,,NQZ,Europe/Berlin,48.14,10.13,Germany
NEWQUAY,NQY,NQY,Europe/London,50.4,-5.06667,United Kingdom
NUQUI,NQU,NQU,America/Bogota,5.7,-77.28333,Colombia
NOTTINGHAM,NQT,,Europe/London,52.96667,1.16667,United Kingdom
KOLO,NKL,NKL,Africa/Kinshasa,-1.98333,16.46667,"Congo, the Democratic Republic of the"
NAUKITI BAY,NKI,NKI,America/Anchorage,55.85,-133.1833,United States
NANJING,NKG,NKG,Asia/Chongqing,32.08333,118.8,China
LARISA,LRA,LRA,Europe/Athens,39.65028,22.46556,Greece
SINAK,NKD,NKD,Asia/Jayapura,-3.83333,137.85,Indonesia
NOUAKCHOTT,NKC,NKC,Africa/Nouakchott,18.08333,-15.95,Mauritania
NOONKANBAH,NKB,NKB,Australia/Perth,-18.5,124.8333,Australia
NKAN,NKA,NKA,Africa/Libreville,0.7,9.98333,Gabon
Earls Colne,,ECO,Europe/London,51.56,0.41,United Kingdom
El Centro,,ECO,America/Los_Angeles,32.47,-115.33,United States
NULLAGINE,NLL,NLL,Australia/Perth,-21.75,120.2,Australia
NORFOLK ISLAND,NLK,NLK,Pacific/Norfolk,-29.05,167.9333,Norfolk Island
NIKOLAYEVSK-NA-AMURE,NLI,,Asia/Vladivostok,53.15,140.6389,Russian Federation
NELSON LAGOON,NLG,NLG,America/Anchorage,56.01667,-161.15,United States
DARNLEY ISLAND,NLF,NLF,TimeZoneNotFound,-9.56667,143.75,Australia
NILES,NLE,NLE,America/New_York,41.85,-86.21667,United States
NUEVO LAREDO,NLD,NLD,America/Mexico_City,27.45,-99.51667,Mexico
LEMOORE,NLC,NLC,America/Los_Angeles,36.33278,-119.9519,United States
NDOLA,NLA,NLA,Africa/Lusaka,-13,28.65,Zambia
N&#39;KAYI,NKY,NKY,Africa/Brazzaville,-2.93333,14.26667,Congo
NKAU,NKU,NKU,Africa/Maseru,-29.93333,28.43333,Lesotho
North Kingstown,,NKT,America/New_York,41.33,-71.28,United States
NKONGSAMBA,NKS,NKS,Africa/Douala,4.95,9.93333,Cameroon
NUKUTEPIPI,NKP,,Pacific/Tahiti,-20.70139,-143.045,French Polynesia
ANKOKOAMBO,NKO,NKO,Indian/Antananarivo,-18.78333,47.46667,Madagascar
NANKINA,NKN,NKN,Pacific/Port_Moresby,-5.83333,146.45,Papua New Guinea
NOMANE,NMN,NMN,Pacific/Port_Moresby,-6.31667,145.0667,Papua New Guinea
Nummela,,NML,Europe/Helsinki,60.19,24.19,Finland
SAN MIGUEL,NMG,NMG,America/Panama,8.45,-78.91667,Panama
NIGHTMUTE,NME,NME,America/Anchorage,60.48333,-164,United States
NORMAN&#39;S CAY,NMC,NMC,America/Nassau,24.58333,-76.83333,Bahamas
North Myrtle Beach,,NMB,America/New_York,33.49,-78.42,United States
NAMANGAN,NMA,NMA,Asia/Samarkand,40.98333,71.6,Uzbekistan
MYKOLAIV,NLV,NLV,Europe/Kiev,47.05,31.91667,Ukraine
XINYUAN,NLT,,Asia/Shanghai,43.43222,83.38222,China
NICHOLSON,NLS,NLS,Australia/Perth,-18.03333,128.9,Australia
NELSPRUIT,NLP,NLP,Africa/Johannesburg,-25.48333,30.98333,South Africa
NARYAN MAR,NNM,NNM,Europe/Moscow,67.61667,53.15,Russian Federation
NONDALTON,NNL,NNL,America/Anchorage,60,-154.8167,United States
NAKNEK,NNK,NNK,America/Anchorage,58.75,-156.5333,United States
NAMUTONI,NNI,NNI,Africa/Windhoek,-18.81667,16.91667,Namibia
NANNING,NNG,NNG,Asia/Chongqing,22.78333,108,China
NANGADE,NND,NND,Africa/Maputo,-11.08333,39.6,Mozambique
SANTA ANA ISLAND,NNB,NNB,Pacific/Guadalcanal,-10.83333,162.4667,Solomon Islands
KENITRA,NNA,NNA,Africa/Casablanca,34.26667,-6.6,Morocco
Essen,,ONU,Europe/Berlin,52.42,7.55,Germany
NAMTU,NMT,NMT,Asia/Rangoon,23.08333,97.4,Myanmar
NANSANG,NMS,NMS,Asia/Rangoon,20.88333,97.75,Myanmar
NAPPA MERRIE,NMR,NMR,Australia/Brisbane,-27.63333,141.0833,Australia
Chilpancingo,,CHI,America/Mexico_City,17.33,-99.3,Mexico
CHICAGO,CHI,,America/Chicago,41.78333,-87.75,United States
NEW MOON,NMP,NMP,Australia/Brisbane,-20.16667,143.9667,Australia
GAU ISLAND,NGI,NGI,Pacific/Fiji,-18.03333,179.3,Fiji
KANEOHE BAY,NGF,NGF,Pacific/Honolulu,21.44583,-157.7697,United States
NGAOUNDERE,NGE,NGE,Africa/Douala,7.35,13.56667,Cameroon
ANEGADA,NGD,NGD,America/Tortola,18.73333,-64.31667,"Virgin Islands, British"
NINGBO,NGB,NGB,Asia/Chongqing,29.83333,121.5333,China
YOUNG,NGA,NGA,Australia/Sydney,-34.25,148.25,Australia
NAFOORA,NFR,NFR,Africa/Tripoli,29.21667,21.58333,Libya
NIUAFO&#39;OU,NFO,NFO,Pacific/Tongatapu,-15.6,-175.6667,Tonga
FALLON,NFL,NFL,America/Los_Angeles,39.46667,-118.7833,United States
NEW HALFA,NHF,NHF,Africa/Khartoum,15.35,35.73333,Sudan
Condado de Cameron ,HRL,520,,,,United States
NHA TRANG,NHA,NHA,Asia/Saigon,12.23333,109.1833,Viet Nam
SPRINGFIELD,SGH,SGH,America/New_York,39.91667,-83.8,United States
ALAMEDA,NGZ,NGZ,America/Los_Angeles,37.80056,-122.2647,United States
MANANG,NGX,NGX,Asia/Katmandu,27.5,90.5,Nepal
NAGASAKI,NGS,NGS,Asia/Tokyo,32.93333,129.9333,Japan
NINGERUM,NGR,NGR,Pacific/Port_Moresby,-5.66667,141.1167,Papua New Guinea
SHIQUANHE,NGQ,,Asia/Chongqing,32.09972,80.05333,China
NAGOYA,NGO,NGO,Asia/Tokyo,34.85833,136.8053,Japan
NARGANA,NGN,NGN,America/Panama,9.06667,-78.01667,Panama
NGALA,NGL,NGL,Africa/Johannesburg,-30,30,South Africa
NOGLIKI,NGK,,Asia/Vladivostok,51.8,143.1667,Russian Federation
NIOKOLO-KOBA,NIK,NIK,Africa/Dakar,13.06667,-12.71667,Senegal
Niijima,,NIJ,Asia/Tokyo,,,Japan
High River,,HRI,America/Edmonton,50.34,-113.52,Canada
NIKUNAU,NIG,NIG,Pacific/Tarawa,-1.38333,176.4333,Kiribati
NIFTY,NIF,NIF,Australia/Perth,-21.66667,121.5833,Australia
NICOSIA,NIC,NIC,Asia/Nicosia,35.15,33.26667,Cyprus
NIKOLAI,NIB,NIB,America/Anchorage,63.01667,-154.3833,United States
NIMBA,NIA,NIA,Africa/Monrovia,7.5,-8.58333,Liberia
BRUNSWICK,NHZ,NHZ,America/New_York,43.89222,-69.93861,United States
FOLEY,NHX,NHX,America/Chicago,30.41667,-87.68333,United States
NUKU HIVA,NHV,NHV,Pacific/Marquesas,-8.78333,-140.1667,French Polynesia
NORTHOLT,NHT,NHT,Europe/London,51.55,-0.38333,United Kingdom
NUSHKI,NHS,NHS,Asia/Karachi,29.55,66,Pakistan
PATUXENT RIVER,NHK,NHK,America/New_York,38.29167,-76.41611,United States
Jackson,,NJJ,America/Chicago,39.46,-74.51,United States
AL NAJAF,NJF,NJF,Asia/Baghdad,31.98972,44.40417,Iraq
NIZHNEVARTOVSK,NJC,NJC,Asia/Yekaterinburg,60.95,76.48333,Russian Federation
,BWI,BWI,America/New_York,,,United States
ATSUGI,NJA,NJA,Asia/Tokyo,35.43333,139.3667,Japan
NIORO DU SAHEL,NIX,NIX,Africa/Bamako,15.23333,-9.58333,Mali
NIAU,NIU,,Pacific/Tahiti,-16.12083,-146.3736,French Polynesia
NIORT,NIT,NIT,Europe/Paris,46.31333,-0.39444,France
SIMBERI ISLAND,NIS,NIS,Pacific/Port_Moresby,-2.66667,152,Papua New Guinea
BEEVILLE,NIR,NIR,America/Chicago,28.41667,-97.78333,United States
NIOKI,NIO,NIO,Africa/Kinshasa,-2.75,17.7,"Congo, the Democratic Republic of the"
NINILCHIK,NIN,NIN,America/Anchorage,60.05,-151.6667,United States
NIAMEY,NIM,NIM,Africa/Niamey,13.48333,2.16667,Niger
NICE,NCE,NCE,Europe/Paris,43.66528,7.215,France
NORTH CAICOS,NCA,NCA,America/Grand_Turk,21.88333,-71.95,Turks and Caicos Islands
NABIRE,NBX,NBX,Asia/Jayapura,-3.3,135.8833,Indonesia
GLENVIEW,NBU,NBU,America/Chicago,42.09306,-87.8525,United States
BAISHAN,NBS,,Asia/Chongqing,42.08333,127.6,China
Nambour,,NBR,Australia/Brisbane,,,Australia
NAIROBI,NBO,NBO,Africa/Nairobi,-1.31667,36.93333,Kenya
ANNOBON,NBN,,Africa/Malabo,-1.40944,5.62194,Equatorial Guinea
SAN BLAS,NBL,,America/Panama,9.46667,-79,Panama
NAMBUCCA HEADS,NBH,NBH,Australia/Sydney,-30.65,153,Australia
Newberry,,NBF,America/New_York,,,United States
ENFIDHA,NBE,NBE,Africa/Tunis,36.07556,10.43833,Tunisia
N&#39;DALATANDO LOCATION,NDF,NDF,Africa/Luanda,-9.33333,14.83333,Angola
MANDERA,NDE,NDE,Africa/Nairobi,3.93333,41.86667,Kenya
SUMBE,NDD,NDD,Africa/Luanda,-11.16667,13.86667,Angola
NANDED,NDC,NDC,Asia/Calcutta,19.18333,77.31667,India
NOUADHIBOU,NDB,NDB,Africa/Nouakchott,20.91667,-17.01667,Mauritania
Hamad,DOH,,,,,Qatar
BANDA ISLAND,NDA,NDA,TimeZoneNotFound,-4.53333,129.9,Indonesia
ANNECY,NCY,NCY,Europe/Paris,45.93083,6.10639,France
NUKUS,NCU,NCU,Asia/Samarkand,42.48333,59.63333,Uzbekistan
NICOYA,NCT,NCT,America/Costa_Rica,10.2,-85.46667,Costa Rica
NEWCASTLE,NCS,NCS,Africa/Johannesburg,-27.75,30,South Africa
SAN CARLOS,NCR,NCR,America/Managua,8.48333,-79.95,Nicaragua
QUONSET POINT,NCO,NCO,America/New_York,41.59944,-71.41667,United States
CHENEGA,NCN,NCN,America/Anchorage,60,-148,United States
NEWCASTLE,NCL,NCL,Europe/London,55.03333,-1.7,United Kingdom
Northeim,,NOM,Europe/Berlin,51.42,10,Germany
SUNCHALES,NCJ,,America/Lima,-3.8075,-75.04778,Argentina
NECOCLI,NCI,NCI,America/Bogota,8.45,-76.78333,Colombia
NACHINGWEA,NCH,NCH,Africa/Dar_es_Salaam,-10.36667,38.8,"Tanzania, United Republic of"
NUEVO CASAS GRANDES,NCG,NCG,America/Mazatlan,30.51667,-107.9833,Mexico
NEGRIL,NEG,NEG,America/Jamaica,18.3,-78.33333,Jamaica
NEFTEKAMSK,NEF,NEF,Asia/Yekaterinburg,56.1,54.35,Russian Federation
NECOCHEA,NEC,NEC,America/Cordoba,-38.66667,-58.75,Argentina
GLYNCO,NEA,NEA,America/New_York,31.25889,-81.46611,United States
SAN FERNANDO,SFE,SFE,Asia/Manila,16.6,120.3,Philippines
SANDAY,NDY,NDY,Europe/London,59.46667,-2.65,United Kingdom
RUNDU,NDU,NDU,Africa/Windhoek,-17.96667,19.71667,Namibia
SANDSTONE,NDS,NDS,Australia/Perth,-28,119.25,Australia
NADOR,NDR,NDR,Africa/Casablanca,35.2,-2.91667,Morocco
NADUNUMU,NDN,NDN,Pacific/Port_Moresby,-9.13333,147.6833,Papua New Guinea
MENDI,NDM,,Africa/Addis_Ababa,9.81667,35.08333,Ethiopia
NDELE,NDL,NDL,Africa/Bangui,8.4,20.65,Central African Republic
NAMDRIK ISLAND,NDK,NDK,Pacific/Majuro,5.63333,168.1167,Marshall Islands
N&#39;DJAMENA,NDJ,NDJ,Africa/Ndjamena,12.13333,15.03333,Chad
NAMUDI,NDI,NDI,Pacific/Port_Moresby,-9.45,148.2333,Papua New Guinea
Nordhausen,,NDH,Europe/Berlin,,,Germany
QIQIHAR,NDG,NDG,Asia/Chongqing,47.51667,112.1333,China
NEFTEYUGANSK,NFG,NFG,Asia/Yekaterinburg,61.13333,73.05,Russian Federation
Norfolk,,NFF,America/New_York,42,-73.12,United States
Nevada City,,NFC,America/Los_Angeles,,,United States
Winnipeg Manitoba,YWG,,,,,Canada
Nevatim,,NEV,Asia/Jerusalem,31.13,34.52,Israel
SAM NEUA,NEU,NEU,Asia/Vientiane,20.41667,104.0667,Lao People&#39;s Democratic Republic
NERYUNGRI,NER,NER,Asia/Yakutsk,56.65,124.6,Russian Federation
WHITEHOUSE,NEN,NEN,America/New_York,30.33333,-81.88333,United States
LAKEHURST,NEL,NEL,America/New_York,41.05,-74.75,United States
NEKEMTE,NEK,,Africa/Addis_Ababa,9.03333,36.58333,Ethiopia
NEJO,NEJ,,Africa/Addis_Ababa,9.5,35.53333,Ethiopia
SHANK,OAA,,Asia/Kabul,33.92194,69.07778,Afghanistan
OBOCK,OBC,OBC,Africa/Djibouti,11.91667,43.25,Djibouti
OBAN,OBA,OBA,Australia/Brisbane,-21.23333,139.0333,Australia
CAMP BASTION,OAZ,CBN,Asia/Kabul,31.86472,64.19056,Afghanistan
HOPKINSVILLE,HOP,HOP,America/Chicago,36.67278,-87.49167,United States
OAXACA,OAX,OAX,America/Mexico_City,16.98333,-96.71667,Mexico
SHARANA,OAS,,Asia/Kabul,33.12583,68.83861,Afghanistan
Al Asad,,ASD,Asia/Baghdad,33.47,42.26,Iraq
OLANCHITO,OAN,OAN,America/Tegucigalpa,15.51667,-86.63333,Honduras
OAMARU,OAM,OAM,Pacific/Auckland,-44.96667,171.0833,New Zealand
CACOAL,OAL,OAL,Europe/Berlin,-11.43333,-61.95,Brazil
OAKLAND,OAK,OAK,America/Los_Angeles,37.71667,-122.2167,United States
JACKSONVILLE,OAJ,OAJ,America/New_York,34.71667,-77.41667,United States
BAGRAM,OAI,,Asia/Kabul,34.94639,69.265,Afghanistan
ORANGE,OAG,OAG,Australia/Sydney,-33.38333,149.1333,Australia
Merville,,MEV,Europe/Paris,50.38,2.38,France
COCA,OCC,OCC,America/Guayaquil,-0.48333,-76.96667,Ecuador
OCEAN REEF,OCA,OCA,America/New_York,25.36667,-80.26667,United States
Oldbury,,OBY,Europe/London,,,United Kingdom
OBO,OBX,OBX,Pacific/Port_Moresby,-7.58333,141.3333,Papua New Guinea
KOBUK,OBU,OBU,America/Anchorage,66.93333,-156.8667,United States
AUBENAS,OBS,OBS,Europe/Paris,44.53944,4.37167,France
OBIHIRO,OBO,OBO,Asia/Tokyo,42.88333,143.1667,Japan
OBAN,OBN,OBN,Europe/London,56.58333,-5.5,United Kingdom
MOROBE,OBM,OBM,Pacific/Port_Moresby,-7.75,147.5833,Papua New Guinea
ZOERSEL,OBL,OBL,Europe/Brussels,51.26472,4.75333,Belgium
NORTHBROOK,OBK,OBK,America/Chicago,42.13333,-87.83333,United States
OBIDOS,OBI,OBI,America/Boa_Vista,-1.86667,-55.53333,Brazil
Ocean Isle Beach,,OBH,America/New_York,33.53,-78.26,United States
OBERPFAFFENHOFEN,OBF,OBF,Europe/Berlin,48.08333,11.28333,Germany
Obera,,OBE,America/Cordoba,-27.29,-550.8,Argentina
OBANO,OBD,OBD,Asia/Jayapura,-3.9,136.2,Indonesia
ODENSE,ODE,ODE,Europe/Copenhagen,55.47667,10.33083,Denmark
OODNADATTA,ODD,ODD,Australia/Adelaide,-27.55,135.4333,Australia
OAKDALE,ODC,ODC,America/Los_Angeles,37.75611,-120.8,United States
Ormond Beach,,ODB,America/New_York,,,United States
OUADDA,ODA,ODA,Africa/Bangui,8,22.41667,Central African Republic
Melle,,MEE,Europe/Berlin,52.12,8.21,Germany
WASHINGTON,OCW,OCW,America/New_York,35.55,-77.05,United States
OCANA,OCV,OCV,America/Bogota,8.25,-73.78333,Colombia
Oconomowoc,,OCO,America/Chicago,,,United States
OCEANSIDE,OCN,OCN,America/Los_Angeles,33.21667,-117.35,United States
BOOLGEEDA,OCM,,Australia/Perth,-22.53972,117.2733,Australia
OCHO RIOS,OCJ,OCJ,America/Jamaica,18.41667,-77.13333,Jamaica
OCEANIC,OCI,OCI,America/Anchorage,60.1,-148.2167,United States
NACOGDOCHES,OCH,OCH,America/Chicago,31.6,-94.65,United States
OCALA,OCF,OCF,America/New_York,29.16667,-82.21667,United States
OCEAN CITY,OCE,OCE,America/New_York,38.31667,-75.11667,United States
Angera,AGA,AGE,Africa/Casablanca,45.46,8.34,Italy
Middelburg,,MDB,Africa/Johannesburg,-25.46,29.28,South Africa
GUANGYUAN,GYS,GYS,Asia/Chongqing,32.395,105.6997,China
CONINGSBY,QCY,CNG,Europe/London,57.2,-2.20056,United Kingdom
BRANSON,BKG,BKG,America/Chicago,36.53167,-93.19972,United States
NOWATA,NWT,NWT,Pacific/Port_Moresby,-8.5,143.1667,Papua New Guinea
NORWICH,NWI,NRW,Europe/London,52.68333,1.28333,United Kingdom
NEWPORT,NWH,NWH,America/New_York,43.33333,-72.16667,United States
Haguenau,,HAG,Europe/Paris,,,France
Newcastle,,NWC,Europe/Dublin,53.18,-6.3,Ireland
MOHELI,NWA,NWA,Indian/Comoro,-12.28333,43.76667,Comoros
NEYVELI,NVY,NVY,Asia/Calcutta,11.6,79.43333,India
WILLOW GROVE,NXX,NXX,America/New_York,40.20028,-75.14778,United States
SAMOS,SMI,SMI,Europe/Athens,37.69,26.91167,Greece
Vilseck,,VIL,Europe/Berlin,,,Germany
MONYWA,NYW,,Asia/Rangoon,22.22222,95.09306,Myanmar
BAGAN NYAUNG U,NYU,NYU,Asia/Rangoon,21.2,94.96667,Myanmar
NAY PYI TAW,NYT,,Asia/Rangoon,19.62222,96.20139,Myanmar
NYURBA,NYR,,Asia/Yakutsk,63.29472,118.3369,Russian Federation
NYNGAN,NYN,NYN,Australia/Sydney,-31.55,147.1833,Australia
NADYM,NYM,NYM,Asia/Yekaterinburg,65.48333,72.71667,Russian Federation
Nylstroom,,NYL,Africa/Johannesburg,-24.41,28.24,South Africa
NANYUKI,NYK,NYK,Africa/Nairobi,-0.05,37.05,Kenya
SUNYANI,NYI,NYI,Africa/Accra,7.33333,-2.33333,Ghana
BURLINGTON,BRL,BRL,America/Chicago,40.78333,-91.11667,United States
QUANTICO,NYG,NYG,America/New_York,38.50167,-77.30528,United States
NYERI,NYE,NYE,Africa/Nairobi,-0.2,36.95,Kenya
NEW YORK,NYC,NYC,America/New_York,40.78333,-73.96667,United States
Ny-Alesund,,NYA,Arctic/Longyearbyen,78.56,11.57,Svalbard and Jan Mayen
SOUTH WEYMOUTH,NZW,NZW,America/New_York,42.16667,-70.95,United States
NZOIA,NZO,NZO,Africa/Nairobi,0.13333,34.08333,Kenya
MANZHOULI,NZH,NZH,Asia/Chongqing,49.58417,117.4308,China
NZEREKORE,NZE,NZE,Africa/Monrovia,7.81667,-8.7,Guinea
NZAGI,NZA,NZA,America/Lima,-8.38333,21.43333,Angola
NAKON SI THAMMARAT,NST,NST,Asia/Bangkok,8.43333,99.96667,Thailand
SCONE,NSO,NSO,Australia/Sydney,-32.16667,150.9167,Australia
Carlsbad,,CLD,America/Los_Angeles,33.09,-117.2,United States
NELSON,NSN,NSN,Pacific/Auckland,-41.29833,173.2211,New Zealand
NORSEMAN,NSM,NSM,Australia/Perth,-32.2,121.75,Australia
SLAYTON,NSL,NSL,America/Chicago,43.98667,-95.7825,United States
NORILSK,NSK,NSK,Asia/Krasnoyarsk,69.31667,87.31667,Russian Federation
Yaounde,NSI,YAO,Africa/Douala,3.52,11.31,Cameroon
NOW SHAHR,NSH,NSH,Asia/Tehran,36.66667,51.46667,"Iran, Islamic Republic of"
Nuits-Saint-Georges,,NSG,Europe/Paris,47.08,4.57,France
MILTON,NSE,NSE,America/Chicago,30.72389,-87.02167,United States
Phetchabun,,PCN,Asia/Bangkok,16.25,101.09,Thailand
Arak,,ARA,Asia/Tehran,34.05,49.41,"Iran, Islamic Republic of"
CADILLAC,CAD,CAD,America/New_York,44.26667,-85.41667,United States
Biscarosse,,NSB,Europe/Paris,44.23,-1.1,France
Nakhon Sawan,,NSA,Asia/Bangkok,15.41,100.07,Thailand
NEWRY,NRY,NRY,Australia/Darwin,-16.08333,129.3333,Australia
OCEANA,NTU,NTU,America/New_York,36.82056,-76.03333,United States
NIUATOPUTAPU,NTT,NTT,Pacific/Tongatapu,-15.5,-174,Tonga
Landshut,,LDH,Europe/Berlin,,,Germany
WAJIMA,NTQ,,Asia/Tokyo,37.29028,136.9653,Japan
SANTO ANTAO ISLAND,NTO,NTO,Atlantic/Cape_Verde,17.05,-25.16667,Cape Verde
KANAVAYEN,KAV,KAV,America/Caracas,5.66667,-61.76667,"Venezuela, Bolivarian Republic of"
NORMANTON,NTN,NTN,Australia/Brisbane,-17.7,141.0667,Australia
MIRACEMA DO TOCANTINS,NTM,NTM,America/Fortaleza,-9.18333,-48.5,Brazil
Weimar,,WMR,Europe/Berlin,,,Germany
NEWCASTLE,NTL,NTL,Australia/Sydney,-32.78333,151.8333,Australia
MANTI EPHRAIM,NTJ,NTJ,America/Denver,39.26667,-111.6333,United States
BINTUNI,NTI,NTI,Asia/Jayapura,-2.1,133.5167,Indonesia
NANTONG,NTG,NTG,Asia/Chongqing,32,120.8333,China
BASTIA,BIA,BIA,Europe/Paris,42.55,9.48472,France
NANTES,NTE,NTE,Europe/Paris,47.15694,-1.60778,France
PORT MUGU,NTD,NTD,America/Los_Angeles,34.12028,-119.1208,United States
SANTA CAROLINA,NTC,NTC,Africa/Maputo,-17.78333,35,Mozambique
NOTODDEN,NTB,NTB,Europe/Oslo,59.58333,9.13333,Norway
NATADOLA,NTA,NTA,Pacific/Fiji,-18.08333,177.3167,Fiji
SIGONELLA,NSY,NSY,Europe/Rome,37.40167,14.92222,Italy
NOOSAVILLE,NSV,NSV,Australia/Brisbane,-26.4,153.0667,Australia
WHIDBEY ISLAND,NUW,NUW,America/Los_Angeles,48.25,-122.6667,United States
NAKURU,NUU,NUU,Africa/Nairobi,-0.3,36.15,Kenya
NUTUVE,NUT,NUT,Pacific/Port_Moresby,-5.63333,151.3833,Papua New Guinea
NORSUP,NUS,NUS,Pacific/Efate,-16.06667,167.3833,Vanuatu
NULLARBOR,NUR,NUR,Europe/Berlin,-31.43333,130.9167,Australia
Nauen,,NUQ,Europe/Berlin,52.36,12.52,Germany
NUNAPITCHUK,NUP,NUP,America/Anchorage,60.88333,-162.4667,United States
Waiouru,,WAO,Pacific/Auckland,-39.28,175.4,New Zealand
NULATO,NUL,NUL,America/Anchorage,64.73333,-158.1,United States
NUKUTAVAKE,NUK,NUK,null,-19.08333,-139,French Polynesia
NOGEH,NUJ,NUJ,Asia/Tehran,35.2,48.66667,"Iran, Islamic Republic of"
NUIQSUT,NUI,NUI,America/Anchorage,70.21667,-150.9167,United States
NUNCHIA,NUH,NUH,America/Bogota,5.65,-72.2,Colombia
NUGURIA ISLANDS,NUG,NUG,Pacific/Port_Moresby,-3.33333,154.75,Papua New Guinea
HATTON,NUF,,Asia/Colombo,6.87583,80.57917,Sri Lanka
NUREMBERG,NUE,NUE,Europe/Berlin,49.5,11.08333,Germany
EN NAHUD,NUD,NUD,Africa/Khartoum,12.7,28.41667,Sudan
NUMBULWAR,NUB,NUB,Australia/Darwin,-14.26667,135.7167,Australia
NUWARA ELIYA,NUA,,Asia/Colombo,6.97194,80.78194,Sri Lanka
KAKE,KAE,KAE,America/Anchorage,56.96667,-133.95,United States
SUN CITY,NTY,NTY,Africa/Johannesburg,-26.03333,27.91667,South Africa
NATUNA,NTX,NTX,Asia/Jakarta,3.95,108.3833,Indonesia
NAVEGANTES,NVT,NVT,America/Sao_Paulo,-26.91667,-48.58333,Brazil
NEVERS,NVS,NVS,Europe/Paris,47.00361,3.11083,France
NOVGOROD,NVR,NVR,Europe/Moscow,58.51667,31.3,Russian Federation
NOVO ARIPUANA,NVP,NVP,America/Boa_Vista,-5.13333,-60.36667,Brazil
BECKWOURTH,NVN,NVN,America/Los_Angeles,39.81833,-120.3528,United States
NARVIK,NVK,NVK,Europe/Oslo,68.41667,17.41667,Norway
NAVOI,NVI,NVI,Asia/Samarkand,40.115,65.15917,Uzbekistan
NUEVA GUINEA,NVG,,America/Managua,11.66667,-84.45,Nicaragua
NEVADA,NVD,NVD,America/Chicago,37.85,-94.3,United States
NEIVA,NVA,NVA,America/Bogota,2.93333,-75.28333,Colombia
NOVY URENGOY,NUX,NUX,Asia/Yekaterinburg,66.08333,76.51667,Russian Federation
OPUWO,OPW,OPW,Africa/Windhoek,-18.06667,13.83333,Namibia
BALIMO,OPU,OPU,Pacific/Port_Moresby,-8.03333,142.9333,Papua New Guinea
BEERSHEBA,BEV,BEV,Asia/Jerusalem,31.25,34.8,Israel
SINOP,OPS,OPS,America/Campo_Grande,-12.08333,-55.63333,Brazil
Orsa,,ORS,Europe/Stockholm,,,Sweden
YORKETOWN,ORR,ORR,Australia/Adelaide,-35.03333,137.6,Australia
ORAPA,ORP,ORP,Africa/Gaborone,-21.13333,25.65,Botswana
YORO,ORO,,America/Tegucigalpa,15.11667,-87.13333,Honduras
ORAN,ORN,ORN,Africa/Algiers,35.61667,-0.61667,Algeria
NORTHAMPTON,ORM,ORM,Europe/London,52.3,-0.78333,United Kingdom
ORLANDO,ORL,,America/New_York,28.53333,-81.35,United States
CORK,ORK,ORK,Europe/Dublin,51.84139,-8.49111,Ireland
ORINDUIK,ORJ,ORJ,America/Guyana,4.71667,-60.03333,Guyana
PORT LIONS,ORI,ORI,America/Anchorage,57.88333,-152.85,United States
WORCESTER,ORH,ORH,America/New_York,42.26667,-71.86667,United States
NORFOLK,ORF,ORF,America/New_York,36.9,-76.2,United States
ORLEANS,ORE,ORE,Europe/Paris,47.8975,2.16417,France
OROCUE,ORC,ORC,America/Bogota,4.9,-71.33333,Colombia
OREBRO,ORB,ORB,Europe/Stockholm,59.25,15.23333,Sweden
ORAN,ORA,ORA,America/Cordoba,-23.15,-64.31667,Argentina
CHACHAPOYAS,CHH,CHH,America/Lima,-6.05,-78.03333,Peru
Palm Springs,,P2S,America/Los_Angeles,26.38,-80.05,United States
OOSTENDE BRUGGE,OST,OST,Europe/Brussels,51.2,2.86667,Belgium
OSH,OSS,OSS,Asia/Bishkek,40.55,72.8,Kyrgyzstan
OSTRAVA,OSR,OSR,Europe/Prague,49.69639,18.28333,Czech Republic
OSBORNE MINE,OSO,,Australia/Brisbane,-22.06667,140.55,Australia
OSAN,OSN,OSN,Asia/Seoul,-0.88333,119.8833,"Korea, Republic of"
MOSUL,OSM,OSM,Asia/Baghdad,36.25,43.16667,Iraq
Naivasha,,RNA,Africa/Nairobi,-0.43,36.26,Kenya
OSLO,OSL,OSL,Europe/Oslo,60.2,11.08333,Norway
ARONA,RNA,RNA,Pacific/Guadalcanal,-9.86444,161.9831,Solomon Islands
OSKARSHAMN,OSK,OSK,Europe/Stockholm,57.26667,16.43333,Sweden
Springs,,SPR,Africa/Johannesburg,,,South Africa
OSIJEK,OSI,OSI,Europe/Zagreb,45.55,18.68333,Croatia
OSHKOSH,OSH,OSH,America/Chicago,43.98333,-88.55,United States
OSSIMA,OSG,OSG,Pacific/Port_Moresby,-2.91667,141.3,Papua New Guinea
PODOLSK,OSF,,Europe/Moscow,55.5075,37.50417,Russian Federation
OMORA,OSE,OSE,Pacific/Port_Moresby,-7.83333,147.0833,Papua New Guinea
ARE OSTERSUND,OSD,OSD,Europe/Stockholm,63.18333,14.5,Sweden
OSCODA,OSC,OSC,America/New_York,44.4525,-83.38028,United States
ORANGE WALK,ORZ,ORZ,America/Belize,18.06667,-88.55,Belize
Seria,,SER,Asia/Brunei darussalam,,,Brunei Darussalam
ORIXIMINA,ORX,ORX,America/Boa_Vista,-1.66667,-55.83333,Brazil
ORMARA,ORW,ORW,Asia/Karachi,25.2,64.63333,Pakistan
NOORVIK,ORV,ORV,America/Anchorage,66.83333,-161.0333,United States
ORURO,ORU,ORU,America/La_Paz,-17.95,-67.1,"Bolivia, Plurinational State of"
NORTHWAY,ORT,ORT,America/Anchorage,62.95,-141.95,United States
REMEDIOS,OTU,OTU,America/Bogota,6.98333,-74.71667,Colombia
COTRIGUACU,OTT,,America/Campo_Grande,-9.89944,-58.58194,Brazil
ANACORTES,OTS,OTS,America/Los_Angeles,48.5,-122.6167,United States
COTO 47,OTR,OTR,America/Costa_Rica,8.56667,-82.93333,Costa Rica
La Habana,HAV,HAV,America/Havana,23.01667,-82.38333,Cuba
OTTO,OTO,OTO,America/Denver,35.06667,-105.9333,United States
OAKTOWN,OTN,OTN,America/New_York,38.86667,-87.43333,United States
OTTUMWA,OTM,OTM,America/Chicago,41.1,-92.45,United States
BOUTILIMIT,OTL,OTL,Africa/Nouakchott,17.53333,-14.71667,Mauritania
TILLAMOOK,OTK,OTK,America/Los_Angeles,42.41806,-123.8142,United States
OTJIWARONGO,OTJ,OTJ,Africa/Windhoek,-20.41667,16.65,Namibia
MOROTAI ISLAND,OTI,,Asia/Jayapura,2.33333,128.4167,Indonesia
NORTH BEND,OTH,OTH,America/Los_Angeles,43.41667,-124.25,United States
WORTHINGTON,OTG,OTG,America/Chicago,43.65,-95.58333,United States
CONTADORA ISLAND,OTD,OTD,America/Panama,8.66667,-79.58333,Panama
BOL,OTC,OTC,Africa/Ndjamena,13.43333,14.73333,Chad
MOTA,OTA,OTA,Africa/Addis_Ababa,11.06667,37.88333,Ethiopia
PHILADELPHIA,PHL,PHL,America/New_York,39.88333,-75.23333,United States
KOSZALIN,OSZ,OSZ,Europe/Warsaw,54.25,16.25,Poland
NAMSOS,OSY,OSY,Europe/Oslo,64.46667,11.6,Norway
KOSCIUSKO,OSX,OSX,America/Chicago,33.08333,-89.55,United States
ORSK,OSW,OSW,Asia/Yekaterinburg,51.0725,58.59556,Russian Federation
Langenfeld,,LGQ,Europe/Berlin,49.37,10.31,Germany
MARMUL,OMM,OMM,Asia/Muscat,22.9,57.51667,Oman
OMKALAI,OML,OML,Pacific/Port_Moresby,-6.18333,144.9667,Papua New Guinea
OMAK,OMK,OMK,America/Los_Angeles,48.4,-119.5333,United States
OMIDIYEH,OMI,OMI,Asia/Tehran,30.83333,49.53333,"Iran, Islamic Republic of"
URUMIYEH,OMH,OMH,Asia/Tehran,37.63333,45.08333,"Iran, Islamic Republic of"
OMEGA,OMG,OMG,Africa/Windhoek,-18,22.06667,Namibia
MAFRAQ,OMF,OMF,Asia/Amman,32.33333,36.23333,Jordan
NOME,OME,OME,America/Anchorage,64.51667,-165.4333,United States
Amberg,,AMB,Europe/Berlin,49.26,11.52,Germany
Ostermundigen,,OMD,Europe/Zurich,46.57,7.29,Switzerland
ORMOC,OMC,,Asia/Manila,11.05,124.5667,Philippines
OMBOUE,OMB,OMB,Africa/Libreville,-1.6,9.26667,Gabon
OMAHA,OMA,OMA,America/Chicago,41.3,-95.9,United States
Brakpan,,BRK,Africa/Johannesburg,,,South Africa
OLEKMINSK,OLZ,,Pacific/Efate,60.40083,120.4375,Russian Federation
OLNEY,OLY,OLY,America/Chicago,38.71667,-88.08333,United States
OLIVE BRANCH,OLV,OLV,America/Chicago,34.96667,-89.83333,United States
Mureck,,MUC,Europe/Vienna,46.42,15.46,Austria
COLUMBUS,OLU,OLU,America/Chicago,41.45,-97.33333,United States
Olten,,OLT,Europe/Zurich,,,Switzerland
NOGALES,OLS,OLS,America/Phoenix,31.33333,-110.9333,United States
SALERNO,OLR,,Asia/Kabul,33.36361,69.95528,Afghanistan
Omaha,,OM3,America/Chicago,37.53,-88.18,United States
OLSOBIP,OLQ,OLQ,Pacific/Port_Moresby,-5.38333,141.5,Papua New Guinea
OLYMPIC DAM,OLP,OLP,Australia/Adelaide,-30.7,135.0167,Australia
OLOMOUC,OLO,OLO,Europe/Prague,49.58778,17.21083,Czech Republic
SARMIENTO,OLN,OLN,America/Cordoba,-45.58333,-69,Argentina
ONTARIO,ONO,ONO,America/Denver,44.01667,-117.0167,United States
SOCORRO,ONM,ONM,America/Denver,34.05,-106.8833,United States
ONEILL,ONL,ONL,America/Chicago,42.45,-98.65,United States
OLENEK,ONK,ONK,Asia/Yakutsk,68.51472,112.48,Russian Federation
ODATE/NOSHIRO,ONJ,ONJ,Asia/Tokyo,40.18917,140.3753,Japan
MOANAMANI,ONI,ONI,Asia/Jayapura,-3.98333,136.0833,Indonesia
Mutoko,,MUT,Africa/Harare,-17.24,32.13,Zimbabwe
ONEONTA,ONH,ONH,America/New_York,42.45,-75.11667,United States
MORNINGTON ISLAND,ONG,ONG,Australia/Brisbane,-16.58333,139.3,Australia
ONEPUSU,ONE,ONE,Pacific/Guadalcanal,-9.16667,161.0667,Solomon Islands
ONDANGWA,OND,OND,Africa/Windhoek,-17.9,15.96667,Namibia
ONONGE,ONB,ONB,Pacific/Port_Moresby,-8.58333,147.2,Papua New Guinea
WINONA,ONA,ONA,Asia/Seoul,36.2,127.0833,United States
THBENG MEANCHEY,OMY,OMY,Asia/Phnom_Penh,13.81667,104.9667,Cambodia
OMSK,OMS,OMS,Asia/Omsk,54.96667,73.3,Russian Federation
ORADEA,OMR,OMR,Europe/Bucharest,47.01667,21.9,Romania
ZAMBOANGA,ZAM,ZAM,Asia/Manila,6.93333,122.0667,Philippines
MOSTAR,OMO,OMO,Europe/Sarajevo,43.28333,17.85,Bosnia and Herzegovina
COOMA,OOM,COM,Australia/Sydney,-36.25,149.1167,Australia
GOLD COAST,OOL,OOL,Australia/Brisbane,-28.16667,153.5,Australia
TOKSOOK BAY,OOK,OOK,America/Anchorage,60.53333,-165.1167,United States
OSKALOOSA,OOA,OOA,America/Chicago,41.28333,-92.63333,United States
OLNEY,ONY,ONY,America/Chicago,33.36667,-98.75,United States
COLON,ONX,ONX,America/Panama,9.36667,-79.9,Panama
ONO-I-LAU,ONU,ONU,Pacific/Fiji,-20.65,-178.7,Fiji
ONTARIO,ONT,ONT,America/Los_Angeles,34.05,-117.6167,United States
ONSLOW,ONS,ONS,Australia/Perth,-21.66667,115.1,Australia
MONKIRA,ONR,ONR,Australia/Brisbane,-24.81667,140.5333,Australia
ZONGULDAK,ONQ,,Europe/Istanbul,41.51667,32.1,Turkey
NEWPORT,ONP,ONP,America/Los_Angeles,44.58333,-124.05,United States
PORTO,OPO,OPO,Europe/Rome,41.23556,-8.67806,Portugal
OPELOUSAS,OPL,OPL,America/Chicago,30.55,-92.1,United States
OENPELLI,OPI,OPI,Australia/Darwin,-12.33333,133.0833,Australia
OPEN BAY,OPB,OPB,Pacific/Port_Moresby,-4.93333,151.6667,Papua New Guinea
KOPASKER,OPA,KOP,Atlantic/Reykjavik,66.31083,-16.46667,Iceland
PRASLIN ISLAND,PRI,PRI,Indian/Mahe,-4.31667,55.73333,Seychelles
ONOTOA,OOT,OOT,Pacific/Tarawa,-1.86667,175.5667,Kiribati
MOORABERREE,OOR,OOR,Australia/Brisbane,-25.23333,140.9667,Australia
Sturtevant,,SRX,America/Chicago,,,United States
NORWICH,OIC,OIC,Europe/London,53.26667,-2.53333,United States
OURILANDIA DO NORTE,OIA,,America/Boa_Vista,-6.77583,-51.06,Brazil
KOHAT,OHT,OHT,Asia/Karachi,33.56667,71.45,Pakistan
SOHAR,OHS,,Asia/Muscat,24.38611,56.62556,Oman
WYK AUF FOEHR,OHR,OHR,Europe/Berlin,54.68528,8.53194,Germany
OKHOTSK,OHO,OHO,Asia/Vladivostok,59.41667,143.05,Russian Federation
Bamberg,,BBM,America/New_York,,,United States
Blumberg,,BBM,Europe/Berlin,48.33,12.17,Germany
OITA,OIT,OIT,Asia/Tokyo,33.25,131.6333,Japan
OKUSHIRI,OIR,OIR,Asia/Tokyo,42.16667,139.5167,Japan
OSHIMA,OIM,OIM,Asia/Tokyo,34.78333,139.3667,Japan
OIL CITY,OIL,OIL,America/New_York,42.43333,-79.73333,United States
Regensburg,,REG,Europe/Berlin,,,Germany
Oak Lawn,,OKL,America/Chicago,41.42,-87.45,United States
KOKOMO,OKK,OKK,America/New_York,40.53333,-86.06667,United States
OKAYAMA,OKJ,OKJ,Asia/Tokyo,34.58333,133.9333,Japan
OKI,OKI,OKI,Asia/Tokyo,36.16667,133.3167,Japan
OAKHAM,OKH,OKH,Europe/London,52.66667,-0.71667,United Kingdom
OKOYO,OKG,OKG,Africa/Brazzaville,-1.46667,15.06667,Congo
OKAUKUEJO,OKF,OKF,Africa/Windhoek,-19.16667,15.93333,Namibia
OKIERABU,OKE,OKE,Asia/Tokyo,27.43333,128.6167,Japan
OKLAHOMA CITY,OKC,OKC,America/Chicago,35.4,-97.61667,United States
FRASER ISLAND,OKB,OKB,Australia/Brisbane,-25,153.2833,Australia
OKINAWA,OKA,OKA,Asia/Tokyo,26.2,127.65,Japan
Alpinopolis,,ALP,America/Sao_Paulo,-20.52,-46.23,Brazil
OLYMPIA,OLM,OLM,America/Los_Angeles,46.96667,-122.9,United States
OYO,OLL,,Africa/Brazzaville,-1.22583,15.91028,Congo
FUERTE OLIMPO,OLK,,America/Asuncion,-21.04694,-57.88333,Paraguay
OLPOI,OLJ,OLJ,Pacific/Efate,-14.88333,166.55,Vanuatu
OLAFSVIK,OLI,OLV,Atlantic/Reykjavik,64.91139,-23.82306,Iceland
OLD HARBOR,OLH,OLH,America/Anchorage,57.2,-153.3167,United States
Fassberg,,FAS,Europe/Berlin,52.54,10.1,Germany
WOLF POINT,OLF,OLF,America/Denver,48.08333,-105.5667,United States
OLEAN,OLE,OLE,America/New_York,42.23333,-78.36667,United States
OLD TOWN,OLD,OLD,America/New_York,44.95,-68.66667,United States
SAO PAULO DE OLIVENCA,OLC,,America/Boa_Vista,-3.46944,-68.95833,Brazil
Oldebroek,,OLB,Europe/Amsterdam,52.26,5.53,Netherlands
ORLAND,OLA,OLA,Europe/Oslo,63.7,9.61667,Norway
OAKEY,OKY,OKY,Australia/Brisbane,-27.4,151.7333,Australia
MOKUTI LODGE,OKU,OKU,Africa/Windhoek,-22.56667,17.1,Namibia
OKTIABRSKY,OKT,OKT,Europe/Moscow,54.43333,53.38333,Russian Federation
OSHKOSH,OKS,OKS,America/Denver,41.4,-102.3333,United States
Okara,,OKR,Asia/Karachi,,,Pakistan
OKABA,OKQ,OKQ,Asia/Jayapura,-8.1,139.7,Indonesia
OKSAPMIN,OKP,OKP,Pacific/Port_Moresby,-5.46667,141.5667,Papua New Guinea
LAWRENCEVILLE,LVL,LVL,America/New_York,36.75,-77.85,United States
OKONDJA,OKN,OKN,Africa/Libreville,-0.7,13.78333,Gabon
OKMULGEE,OKM,OKM,America/Chicago,35.61667,-95.96667,United States
OECUSSI,OEC,OEC,Asia/Dili,-9.25,124.4,Timor-Leste
VINCENNES,OEA,OEA,America/New_York,38.66667,-87.51667,United States
MUANG XAY,ODY,ODY,Asia/Vientiane,20.58333,104.1667,Lao People&#39;s Democratic Republic
OAK HARBOR,ODW,ODW,America/Los_Angeles,48.28333,-122.6167,United States
Cordova,,ODV,America/Anchorage,41.4,-90.19,United States
ODESA,ODS,ODS,Europe/Kiev,46.5,30.61667,Ukraine
ORD RIVER,ODR,ODR,Australia/Perth,-17.35,128.9,Australia
BODAYBO,ODO,,Asia/Irkutsk,57.86639,114.2422,Russian Federation
LONG SERIDAN,ODN,ODN,Asia/Kuala_Lumpur,4.03333,115.0667,Malaysia
CORDILLO DOWNS,ODL,ODL,Australia/Adelaide,-26.83333,140.75,Australia
OUANDA DJALLE,ODJ,ODJ,Africa/Bangui,8.91667,22.58333,Central African Republic
ODIHAM,ODH,ODH,Europe/London,51.25,-0.95,United Kingdom
Offenburg,,OFG,Europe/Berlin,,,Germany
Offenbach,,OFF,Europe/Berlin,50.06,8.46,Germany
SAN ANTONIO OESTE,OES,OES,America/Cordoba,-40.73333,-64.93333,Argentina
ORNSKOLDSVIK,OER,OER,Europe/Stockholm,63.4,18.98333,Sweden
OSCEOLA,OEO,OEO,America/Chicago,45.31667,-92.7,United States
Lasham,,QLA,Europe/London,51.1,-1.02,United Kingdom
PALOEMEU,OEM,OEM,America/Paramaribo,5.48333,-54.05,Suriname
OREL,OEL,,Europe/Moscow,52.98333,36.1,Russian Federation
Brough,,OGH,Europe/London,53.43,-0.35,United Kingdom
KAHULUI,OGG,OGG,Pacific/Honolulu,20.93333,-156.4833,United States
OGERAMNANG,OGE,OGE,Pacific/Port_Moresby,-6.43333,147.3333,Papua New Guinea
OGDEN,OGD,OGD,America/Denver,41.2,-112.0167,United States
ORANGEBURG,OGB,OGB,America/New_York,33.45,-80.85,United States
OGALLALA,OGA,OGA,America/Denver,41.13333,-101.7167,United States
OFU ISLAND,OFU,OFU,Pacific/Pago_Pago,-14.18333,-169.7,American Samoa
ABENGOUROU,OGO,OGO,Africa/Abidjan,6.73333,-3.48333,C��te d&#39;Ivoire
NORFOLK,OFK,OFK,America/Chicago,41.98333,-97.43333,United States
OLAFSFJORDUR,OFJ,OLF,Atlantic/Reykjavik,66.07417,-18.66778,Iceland
OUANGO FITINI,OFI,OFI,Africa/Abidjan,9.6,-4.03333,C��te d&#39;Ivoire
OSHAKATI,OHI,OHI,Africa/Windhoek,-17.78333,15.7,Namibia
OKHA,OHH,,Asia/Vladivostok,53.51667,142.8833,Russian Federation
MOHE,OHE,OHE,Asia/Chongqing,52.91639,122.4222,China
OHRID,OHD,OHD,Europe/Skopje,41.18333,20.75,"Macedonia, the former Yugoslav Republic of"
ANTSIRANANA,DIE,DIE,Indian/Antananarivo,-12.35,49.3,Madagascar
MORAMANGA,OHB,,Indian/Antananarivo,-18.91694,48.71861,Madagascar
OHAKEA,OHA,OHA,Pacific/Auckland,-41.5,174.8167,New Zealand
VLADIKAVKAZ,OGZ,,Europe/Moscow,43.2,44.6,Russian Federation
OUARGLA,OGX,OGX,Africa/Algiers,31.91667,5.4,Algeria
ONGAVA,OGV,OGV,Africa/Windhoek,-19.31667,15.9,Namibia
ORDU GIRESUN,OGU,,Europe/Istanbul,40.96667,38.06667,Turkey
MANGOCHI,MAI,MAI,Africa/Blantyre,-14.48333,35.26667,Malawi
OGDENSBURG,OGS,OGS,America/New_York,44.68333,-75.46667,United States
BONGOR,OGR,OGR,Africa/Ndjamena,10.28333,15.38333,Chad
Ogden,,OGO,America/Denver,42.02,-94.01,United States
YONAGUNI,OGN,OGN,Asia/Tokyo,24.46667,122.9833,Japan
USTUPO ISLAND,OGM,,TimeZoneNotFound,8.25,-19.11667,Panama
KYZYL,KYZ,KYZ,Asia/Krasnoyarsk,51.7,94.46667,Russian Federation
YALUMET,KYX,KYX,Pacific/Port_Moresby,-6.13333,146.6,Papua New Guinea
Eslov,,ESL,Europe/Stockholm,,,Sweden
KOYUKUK,KYU,KYU,America/Anchorage,64.9,-157.7,United States
KYAUKTU,KYT,KYT,Asia/Rangoon,21.4,94.13333,Myanmar
KAYES,KYS,KYS,Africa/Bamako,14.43333,-11.43333,Mali
Kyritz,,KYR,Europe/Berlin,52.57,12.24,Germany
KYAUKPYU,KYP,KYP,Asia/Rangoon,19.43333,93.53333,Myanmar
MILTON KEYNES,KYN,MIK,Europe/London,52.05,0.7,United Kingdom
KEY LARGO,KYL,KYL,America/New_York,25.08333,-80.4,United States
KARLUK,KYK,KYK,America/Anchorage,57.56667,-154.4167,United States
YALATA MISSION,KYI,KYI,Australia/Adelaide,-31.48333,131.8667,Australia
Hodenhagen,,HEA,Europe/Berlin,52.45,9.34,Germany
YEELIRRIE,KYF,KYF,Australia/Perth,-27.26667,120.0667,Australia
TRIPOLI,KYE,KYE,Asia/Beirut,34.58333,36,Lebanon
LANYU (ORCHID ISLAND),KYD,KYD,Asia/Taipei,22.08333,121.5,"Taiwan, Province of China"
Kanoya,,KYA,Asia/Tokyo,,,Japan
TAPACHULA,TAP,TAP,America/Mexico_City,14.88333,-92.28333,Mexico
New Haven,,YNH,America/New_York,38.59,-81.58,United States
Kisarazu,,KZU,Asia/Tokyo,,,Japan
KASTELORIZO,KZS,KZS,Europe/Athens,36.14194,29.57639,Greece
KUTAHYA,KZR,,Europe/Istanbul,39.12028,30.11694,Turkey
KYZYLORDA,KZO,KZO,Asia/Qyzylorda,44.86667,65.46667,Kazakhstan
KAZAN,KZN,KZN,Europe/Moscow,55.8,49,Russian Federation
KOZANI,KZI,KZI,Europe/Athens,40.28611,21.84083,Greece
KITZINGEN,KZG,KZG,Europe/Berlin,49.73333,10.15,Germany
KAINTIBA,KZF,KZF,Pacific/Port_Moresby,-7.8,145.8833,Papua New Guinea
KRAKOR,KZD,KZD,Asia/Phnom_Penh,12.53333,104.15,Cambodia
KAMPONG CHHNANG,KZC,KZC,Asia/Phnom_Penh,12.23333,104.6667,Cambodia
ZACHAR BAY,KZB,KZB,America/Anchorage,57.55,-153.75,United States
HERAKLION,HER,HER,Europe/Athens,35.33972,25.18028,Greece
LABREA,LBR,LBR,America/Boa_Vista,-7.25,-64.78333,Brazil
KAMUSI,KUY,KUY,Pacific/Port_Moresby,-7.4275,143.1239,Papua New Guinea
SIWEA,SWE,SWE,Pacific/Port_Moresby,-6.28333,147.55,Papua New Guinea
GUNSAN,KUV,KUV,Asia/Seoul,35.9,126.6167,"Korea, Republic of"
KULLU,KUU,KUU,Asia/Calcutta,31.86667,77.15,India
KUTAISI,KUT,KUT,Asia/Tbilisi,42.17667,42.4825,Georgia
KULUSUK,KUS,KUS,America/Godthab,65.56667,-37.11667,Greenland
Eura,,EUA,Europe/Helsinki,61.08,22.09,Finland
KURAN WA MUNJAN,KUR,KUR,Asia/Kabul,38.4,71.11667,Afghanistan
KURI,KUQ,KUQ,Pacific/Port_Moresby,-10.06667,148.2167,Papua New Guinea
KUPIANO,KUP,KUP,Pacific/Port_Moresby,-10.06667,148.2167,Papua New Guinea
KUOPIO,KUO,KUO,Europe/Helsinki,63.01667,27.8,Finland
KAUNAS,KUN,KUN,Europe/Vilnius,54.9,23.91667,Lithuania
YAKUSHIMA,KUM,KUM,Asia/Tokyo,30.33333,130.6333,Japan
Kulmbach,,KUL,Europe/Berlin,,,Germany
KASIGLUK,KUK,KUK,America/Anchorage,60.86667,-162.5333,United States
KUSHIRO,KUH,KUH,Asia/Tokyo,43.03333,144.2,Japan
KUBIN,KUG,KUG,Australia/Brisbane,-10.25,142.2167,Australia
SAMARA,KUF,KUF,Europe/Moscow,53.2,50.15,Russian Federation
KUKUNDU,KUE,KUE,Pacific/Guadalcanal,-8.01667,156.95,Solomon Islands
KUDAT,KUD,KUD,Asia/Kuala_Lumpur,6.91667,116.8333,Malaysia
KURIA,KUC,KUC,TimeZoneNotFound,0.23333,173.4167,Kiribati
KUALA BELAIT,KUB,KUB,Asia/Brunei,4.91667,114.9333,Brunei Darussalam
KUANTAN,KUA,KUA,Asia/Kuala_Lumpur,3.76667,103.2,Malaysia
KIROV,KVX,KVX,Europe/Moscow,58.5,49.35,Russian Federation
KOROLEVU,KVU,KVU,Pacific/Fiji,-18.21667,177.7333,Fiji
KAVALEROVO,KVR,,Asia/Vladivostok,44.2725,135.0289,Russian Federation
Kolpashevo,,KVO,Asia/Omsk,58.18,82.56,Russian Federation
MARKOVO,KVM,,Asia/Anadyr,64.66667,170.4167,Russian Federation
KIVALINA,KVL,KVL,America/Anchorage,67.73333,-164.6667,United States
KIROVSK APATITY,KVK,KVK,Europe/Moscow,67.58333,33.58333,Russian Federation
KAVIENG,KVG,KVG,Pacific/Port_Moresby,-2.56667,150.8167,Papua New Guinea
KITAVA ISLAND,KVE,KVE,Pacific/Port_Moresby,-10.16667,148.7,Papua New Guinea
GANJA,KVD,KVD,Asia/Baku,40.73333,46.31667,Azerbaijan
KING COVE,KVC,KVC,America/Anchorage,55.06667,-162.3167,United States
Alabaster,,LBA,America/Chicago,33.14,-86.48,United States
SKOVDE,KVB,,Europe/Stockholm,58.45,13.96667,Sweden
KAVALA,KVA,KVA,Europe/Athens,40.91333,24.61917,Greece
KOLWEZI,KWZ,KWZ,Africa/Lubumbashi,-10.76667,25.48333,"Congo, the Democratic Republic of the"
KIWAYU,KWY,KWY,Africa/Nairobi,-2.01667,41.26667,Kenya
KIWAI ISLAND,KWX,KWX,Pacific/Port_Moresby,-8.5,143.4167,Papua New Guinea
KURWINA,KWV,KWV,Pacific/Port_Moresby,-6.18333,155.3333,Papua New Guinea
MANSION HOUSE,KWU,KWU,Pacific/Auckland,-37.78333,175.2833,New Zealand
KWETHLUK,KWT,KWT,America/Anchorage,60.8,-161.45,United States
KWAILIBESI,KWS,KWS,Pacific/Guadalcanal,-8.35,160.75,Solomon Islands
KWAI HARBOUR,KWR,KWR,Pacific/Guadalcanal,-8.56667,160.7333,Solomon Islands
WEST POINT,KWP,KWP,America/Anchorage,57.76667,-153.55,United States
KAWITO,KWO,KWO,Pacific/Port_Moresby,-7.98333,142.8167,Papua New Guinea
QUINHAGAK,KWN,KWN,America/Anchorage,59.75,-161.9167,United States
KOWANYAMA,KWM,KWM,Australia/Brisbane,-17.51667,145.4167,Australia
GUILIN,KWL,KWL,Asia/Chongqing,25.18333,110.15,China
KWIGILLINGOK,KWK,KWK,America/Anchorage,59.81667,-163.15,United States
GWANGJU,KWJ,KWJ,Asia/Seoul,35.11667,126.8167,"Korea, Republic of"
KUWAIT,KWI,KWI,Asia/Kuwait,29.35,48,Kuwait
KHWAHAN,KWH,KWH,Asia/Kabul,37.88333,70.2,Afghanistan
KRIVYI RIH,KWG,KWG,Europe/Kiev,48.05,33.21667,Ukraine
WATERFALL,KWF,KWF,America/Anchorage,55.3,-133.25,United States
GUIYANG,KWE,KWE,Asia/Chongqing,26.66667,107.0167,China
KAWADJIA,KWD,KWD,Africa/Lubumbashi,-8,23.23333,Central African Republic
KARIMUNJAWA,KWB,,Asia/Jakarta,-5.85,110.4667,Indonesia
COLL ISLAND,COL,COL,Europe/London,56.61667,-6.61667,United Kingdom
KWAJALEIN ISLAND,KWA,KWA,Pacific/Majuro,8.71667,167.7333,Marshall Islands
KATIU,KXU,,Pacific/Tahiti,-16.4,-144.3333,French Polynesia
Farila,,FLR,Europe/Stockholm,61.48,15.51,Sweden
Florennes,,FLR,Europe/Brussels,50.15,4.37,Belgium
KAROOLA,KXR,KXR,Pacific/Port_Moresby,-5.28333,154.6,Papua New Guinea
KOMSOMOLSK NA AMURE,KXK,KXK,Asia/Vladivostok,50.4,136.95,Russian Federation
KORO ISLAND,KXF,KXF,Pacific/Fiji,-17.31667,179.3833,Fiji
KLERKSDORP,KXE,KXE,Africa/Johannesburg,-26.96667,26.65,South Africa
KASAAN,KXA,KXA,America/Anchorage,55.5,-132.5,United States
QURGHONTEPPA,KQT,,Asia/Dushanbe,37.83639,68.78028,Tajikistan
KARARRA,KQR,,Australia/Perth,-29.21667,116.6867,Australia
KOMO,KOM,MAN,Pacific/Port_Moresby,-6.13333,143.6333,Papua New Guinea
KOL,KQL,KQL,Pacific/Port_Moresby,-5.66667,144.8,Papua New Guinea
AKUTAN,KQA,KQA,America/Anchorage,54.11667,-165.75,United States
PORT BAILEY,KPY,KPY,America/Anchorage,57.93333,-153.05,United States
KEPERVEYEM,KPW,,Asia/Anadyr,67.845,166.1397,Russian Federation
PERRYVILLE,KPV,KPV,America/Anchorage,55.9,-159.1333,United States
TURKMENBASHI,KRW,KRW,Asia/Ashgabat,40.03333,53,Turkmenistan
KIMWARER,KRV,KRV,Africa/Nairobi,2.98333,36.11667,Kenya
KERAU,KRU,KRU,Pacific/Port_Moresby,-8.3,147.0833,Papua New Guinea
KHARTOUM,KRT,KRT,Africa/Khartoum,15.6,32.56667,Sudan
KRISTIANSAND,KRS,KRS,Europe/Oslo,58.2,8.1,Norway
KRASNODAR,KRR,KRR,Europe/Moscow,45.06667,38.95,Russian Federation
KRAMATORSK,KRQ,KRQ,Europe/Kiev,48.71667,37.61667,Ukraine
KARUP,KRP,KRP,Europe/Copenhagen,56.2975,9.12472,Denmark
Kroonstad,,KRO,Africa/Johannesburg,-27.39,27.14,South Africa
KIRUNA,KRN,KRN,Europe/Stockholm,67.81667,20.33333,Sweden
KARANAMBO,KRM,KRM,America/Guyana,3.75,-59.31667,Guyana
KORLA,KRL,KRL,Asia/Chongqing,41.73333,86.15,China
KRAKOW,KRK,KRK,Europe/Warsaw,50.2,19.98333,Poland
KARAWARI,KRJ,KRJ,Pacific/Port_Moresby,-8.75,147.4833,Papua New Guinea
KIKORI,KRI,KRI,Pacific/Port_Moresby,-7.48333,144.05,Papua New Guinea
KARASABAI,KRG,KRG,America/Guyana,4.01667,-59.51667,Guyana
KRAMFORS SOLLEFTEA,KRF,KRF,Europe/Stockholm,62.88333,17.83333,Sweden
KIRUNDO,KRE,KRE,Africa/Bujumbura,-2.55,30.1,Burundi
KURUNDI STATION,KRD,KRD,Australia/Darwin,-20.5,134.6333,Australia
KERINCI,KRC,KRC,Asia/Jakarta,-1.7,101.2667,Indonesia
KARUMBA,KRB,KRB,Australia/Brisbane,-17.5,140.8667,Australia
KERANG,KRA,KRA,Australia/Hobart,-35.75,143.9333,Australia
YASURU,KSX,KSX,Pacific/Port_Moresby,-6.6,146.1833,Papua New Guinea
KIRYAT SHMONA,KSW,KSW,Asia/Jerusalem,33.21667,35.56667,Israel
SPRINGVALE,KSV,KSV,Australia/Brisbane,-23.66667,140.75,Australia
Katsina,,KT7,Africa/Lagos,12.59,7.35,Nigeria
KRISTIANSUND,KSU,KSU,Europe/Oslo,63.11667,7.85,Norway
KOSTI,KST,KST,Africa/Khartoum,13.18333,32.73333,Sudan
TORRES ISLANDS,TOH,TOH,Pacific/Efate,-13.31667,166.6167,Vanuatu
SIKASSO,KSS,,Africa/Bamako,11.31667,-5.66667,Mali
SANDY RIVER,KSR,KSR,America/Anchorage,61.21667,-149.8833,United States
KARSHI,KSQ,KSQ,Asia/Samarkand,38.8,65.76667,Uzbekistan
KOSIPE,KSP,KSP,Pacific/Port_Moresby,-8.55,147.4667,Papua New Guinea
KASTORIA,KSO,KSO,Europe/Athens,40.44639,21.28222,Greece
KOSTANAY,KSN,KSN,Asia/Qyzylorda,53.2,63.55,Kazakhstan
ST MARY&#39;S,KSM,KSM,America/Anchorage,62.05,-163.1833,United States
KASSALA,KSL,KSL,Africa/Khartoum,15.38333,36.33333,Sudan
KARLSKOGA,KSK,KSK,Europe/Stockholm,59.33333,14.51667,Sweden
KASOS ISLAND,KSJ,KSJ,Europe/Athens,35.42139,26.91,Greece
KISSIDOUGOU,KSI,KSI,Africa/Conakry,9.16667,-10.11667,Guinea
KERMANSHAH,KSH,KSH,Asia/Tehran,34.26667,47.1,"Iran, Islamic Republic of"
KISENGAM,KSG,KSG,Pacific/Port_Moresby,-6.35,146.7167,Papua New Guinea
KASSEL,KSF,KSF,Europe/Berlin,51.40833,9.3775,Germany
Schwenningen,,SWV,Europe/Berlin,48.06,9,Germany
KASESE,KSE,KSE,Africa/Kampala,0.16667,30.1,Uganda
KARLSTAD,KSD,KSD,Europe/Stockholm,59.36667,13.46667,Sweden
KOSICE,KSC,KSC,Europe/Bratislava,48.61667,21.2,Slovakia
KASANOMBE,KSB,KSB,Pacific/Port_Moresby,-6.38333,147.0167,Papua New Guinea
KOSRAE,KSA,KSA,Pacific/Kosrae,5.31667,162.9833,"Micronesia, Federated States of"
KIRI,KRZ,KRZ,Africa/Kinshasa,-1.45,19,"Congo, the Democratic Republic of the"
KARAMAY,KRY,KRY,Asia/Chongqing,45.61667,84.88333,China
KARKAR ISLAND,KRX,KRX,Pacific/Port_Moresby,-4.83333,145.6667,Papua New Guinea
KATUKURUNDA,KTY,,Asia/Colombo,6.55639,79.98222,Sri Lanka
KOUTIALA,KTX,KTX,Africa/Bamako,12.38333,-5.46667,Mali
KATOWICE,KTW,KTW,Europe/Warsaw,50.48333,19.08333,Poland
KAMARATA,KTV,KTV,America/Caracas,5.75,-62.41667,"Venezuela, Bolivarian Republic of"
KOTA,KTU,KTU,Asia/Calcutta,25,76.5,India
KITTILA,KTT,KTT,Europe/Helsinki,67.66667,24.9,Finland
BREVIG MISSION,KTS,KTS,America/Anchorage,65.33333,-166.4833,United States
KATHERINE,KTR,KTR,Australia/Darwin,-14.45,132.2667,Australia
KITEE,KTQ,KTQ,Europe/Helsinki,62.1,24.5,Finland
KATO,KTO,KTO,America/Guyana,4.65,-59.81667,Guyana
KETCHIKAN,KTN,KTN,America/Anchorage,55.33333,-131.65,United States
KATHMANDU,KTM,KTM,Asia/Katmandu,27.71667,85.35,Nepal
KITALE,KTL,KTL,Africa/Nairobi,0.96667,34.95,Kenya
KUNUA,KTK,KTK,Pacific/Port_Moresby,-5.33889,154.75,Papua New Guinea
KRATIE,KTI,KTI,Asia/Phnom_Penh,12.48333,106.05,Cambodia
TIKCHIK,KTH,KTH,America/Anchorage,59.96306,-158.4772,United States
KETAPANG,KTG,KTG,Asia/Jakarta,-6.9,113.2833,Indonesia
TAKAKA,KTF,KTF,Pacific/Auckland,-40.85,172.8,New Zealand
KERTEH,KTE,KTE,Asia/Kuala_Lumpur,4.48333,103.4333,Malaysia
KITADAITO,KTD,KTD,Asia/Tokyo,25.95,131.3,Japan
KATIOLA,KTC,KTC,Africa/Abidjan,8.13333,-5.1,C��te d&#39;Ivoire
THORNE BAY,KTB,KTB,America/Anchorage,55.68333,-132.5333,United States
KARRATHA,KTA,KTA,Australia/Perth,-20.71667,116.7667,Australia
KOTLAS,KSZ,KSZ,Europe/Moscow,61.23333,46.7,Russian Federation
KARS,KSY,KSY,Europe/Istanbul,40.61667,43.08333,Turkey
KARIMUI,KMR,KMR,Pacific/Port_Moresby,-6.5,144.8333,Papua New Guinea
KOMATSU,KMQ,KMQ,Asia/Tokyo,36.38333,136.4167,Japan
KEETMANSHOOP,KMP,KMP,Africa/Windhoek,-26.53333,18.1,Namibia
MANOKOTAK,KMO,KMO,America/Anchorage,58.96667,-159.05,United States
KAMINA,KMN,KMN,Africa/Lubumbashi,-8.63333,25.25,"Congo, the Democratic Republic of the"
KIMAM,KMM,KMM,Asia/Jayapura,-7.96667,138.9,Indonesia
KAMILEROI,KML,KML,Australia/Brisbane,-19.5,140.0833,Australia
MAKABANA,KMK,KMK,Africa/Brazzaville,-3.48333,12.61667,Congo
KUMAMOTO,KMJ,KMJ,Asia/Tokyo,32.8,130.7667,Japan
MIYAZAKI,KMI,KMI,Asia/Tokyo,31.86667,131.45,Japan
KURUMAN,KMH,KMH,Africa/Johannesburg,-27.46667,23.46667,South Africa
KUNMING,KMG,KMG,Asia/Chongqing,25.05111,102.7003,China
KAMINA,KMF,KMF,Pacific/Port_Moresby,-7.25,145.5333,Papua New Guinea
CYANGUGU,KME,KME,Africa/Kigali,-2.45,28.95,Rwanda
MANDJI,KMD,,Africa/Libreville,-1.66667,10.41667,Gabon
KING KHALID MIL CITY,KMC,,Asia/Riyadh,27.90278,45.53333,Saudi Arabia
KOINAMBE,KMB,KMB,Pacific/Port_Moresby,-5.5,144.6333,Papua New Guinea
KEREMA,KMA,KMA,Pacific/Port_Moresby,-7.96667,145.7667,Papua New Guinea
KLEINSEE,KLZ,KLZ,Africa/Johannesburg,-29.68333,17.06667,South Africa
KALIMA,KLY,KLY,Africa/Lubumbashi,-2.58333,26.73333,"Congo, the Democratic Republic of the"
KALAMATA,KLX,KLX,Europe/Athens,37.06833,22.02556,Greece
KLAWOCK,KLW,KLW,America/Anchorage,55.55,-133.1,United States
KARLOVY VARY,KLV,KLV,Europe/Prague,50.20306,12.915,Czech Republic
KLAGENFURT,KLU,KLU,Europe/Vienna,46.65,14.35,Austria
KELSO,KLS,KLS,America/Los_Angeles,46.15,-122.9,United States
Kjeller,,KLR,Europe/Oslo,,,Norway
KING ISLAND,KNS,KNS,Australia/Melbourne,-39.88333,143.8833,Australia
KANGAN,KNR,KNR,Asia/Tehran,27.85,52.11667,"Iran, Islamic Republic of"
KONE,KNQ,KNQ,Pacific/Noumea,-21,164.6667,New Caledonia
CAPANDA,KNP,KNP,Africa/Luanda,-12.78333,15.71667,Angola
KANKAN,KNN,KNN,Africa/Conakry,10.4,-9.3,Guinea
KANIAMA,KNM,KNM,Africa/Lubumbashi,-7.58333,24.15,"Congo, the Democratic Republic of the"
KELANOA,KNL,KNL,Pacific/Port_Moresby,-6,147.5,Papua New Guinea
KOKHANOK,KNK,KNK,America/Anchorage,59.43333,-154.85,United States
KINDAMBA,KNJ,KNJ,Africa/Brazzaville,-3.73333,14.21667,Congo
KATANNING,KNI,KNI,Australia/Perth,-33.7,117.55,Australia
KINMEN,KNH,KNH,Asia/Taipei,24.41667,118.3333,"Taiwan, Province of China"
UTAROM,KNG,KNG,Asia/Jayapura,-3.71667,133.9167,Indonesia
KING&#39;S LYNN,KNF,,Europe/London,52.75,0.4,United Kingdom
KANAINJ,KNE,KNE,Pacific/Port_Moresby,-5.28333,144.7,Papua New Guinea
KINDU,KND,KND,Africa/Lubumbashi,-2.93333,25.9,"Congo, the Democratic Republic of the"
KANAB,KNB,KNB,America/Denver,37.25,-112.8333,United States
VINA DEL MAR,KNA,KNA,America/Santiago,-33.03333,-71.58333,Chile
Karlsborg,,KBG,Europe/Stockholm,58.35,14.3,Sweden
KAOMA,KMZ,KMZ,Africa/Lusaka,-14.8,24.78333,Zambia
MOSER BAY,KMY,KMY,America/Anchorage,57,-154.1667,United States
KHAMIS MUSHAIT,KMX,KMX,Asia/Riyadh,18.3,42.8,Saudi Arabia
KOSTROMA,KMW,KMW,Europe/Moscow,57.75,40.93333,Russian Federation
KALEMYO,KMV,KMV,Asia/Rangoon,23.18333,94.05,Myanmar
KISIMAYU,KMU,KMU,Africa/Mogadishu,-0.41667,42.83333,Somalia
KAMPOT,KMT,KMT,Asia/Phnom_Penh,10.63333,104.1667,Cambodia
KUMASI,KMS,KMS,Africa/Accra,6.71667,-1.58333,Ghana
KOTLIK,KOT,KOT,America/Anchorage,63.03333,-163.5333,United States
SIHANOUKVILLE,KOS,KOS,Asia/Phnom_Penh,10.6,103.6833,Cambodia
KAKORO,KOR,KOR,Pacific/Port_Moresby,-7.81667,146.55,Papua New Guinea
KOETHEN DE,KOQ,,Europe/Berlin,51.71667,11.95,Germany
NAKHON PHANOM,KOP,KOP,Asia/Bangkok,17.4,104.7667,Thailand
KONGOLO,KOO,KOO,Africa/Lubumbashi,-5.4,27,"Congo, the Democratic Republic of the"
KON TUM,KON,KON,Asia/Saigon,14.35,108.0167,Viet Nam
Komatsushima,,KOM,Asia/Tokyo,,,Japan
Kolding,,KOL,Europe/Copenhagen,,,Denmark
KOKKOLA PIETARSAA,KOK,KOK,Europe/Helsinki,63.83333,23.15,Finland
KAGOSHIMA,KOJ,KOJ,Asia/Tokyo,31.55,130.5667,Japan
KIRKWALL,KOI,KWL,Europe/London,58.93333,-2.9,United Kingdom
KOOLATAH,KOH,KOH,Australia/Brisbane,-15.96667,142.4167,Australia
KHONG,KOG,KOG,Asia/Vientiane,14.1,105.8333,Lao People&#39;s Democratic Republic
KOMATIPOORT,KOF,KOF,Africa/Johannesburg,-25.41667,31.91667,South Africa
KUPANG,KOE,KOE,Asia/Makassar,-10.16667,123.6667,Indonesia
KOTABANGUN,KOD,KOD,Asia/Makassar,-0.26667,116.5833,Indonesia
KOUMAC,KOC,KOC,Pacific/Noumea,-20.5,164.4167,New Caledonia
KONA,KOA,KHH,Pacific/Honolulu,19.74083,-156.0506,United States
KENIEBA,KNZ,KNZ,Africa/Bamako,12.83333,-11.25,Mali
KUNUNURRA,KNX,KNX,Australia/Perth,-15.83333,128.75,Australia
NEW STUYAHOK,KNW,KNW,America/Anchorage,59.53333,-157.3333,United States
KANPUR,KNU,KNU,Asia/Calcutta,26.43333,80.36667,India
KENNETT,KNT,KNT,America/Chicago,36.23333,-90.05,United States
JACKPOT,KPT,KPT,America/Los_Angeles,41.96667,-114.6667,United States
KEMPSEY,KPS,KPS,Australia/Sydney,-31.06667,152.7667,Australia
PORT WILLIAMS,KPR,KPR,America/Anchorage,58.48333,-152.5833,United States
KALPOWAR,KPP,KPP,Australia/Brisbane,-14.88333,144.2167,Australia
KAUHAVA,KAU,KAU,Europe/Helsinki,63.1,23.08333,Finland
POHANG,KPO,KPO,Asia/Seoul,35.98333,129.4167,"Korea, Republic of"
KIPNUK,KPN,KPN,America/Anchorage,59.93333,-164.0333,United States
KIRAKIRA,IRA,IRA,Pacific/Guadalcanal,-10.5,161.8333,Solomon Islands
KOMPIAM,KPM,KPM,Pacific/Port_Moresby,-5.33333,143.9167,Papua New Guinea
KAPIT,KPI,KPI,Asia/Kuala_Lumpur,2,112.9167,Malaysia
KURUPUNG,KPG,KPG,America/Guyana,6.46667,-59.16667,Guyana
YAPSIEI,KPE,KPE,Pacific/Port_Moresby,-4.63333,141.1,Papua New Guinea
KING OF PRUSSIA,KPD,KPD,America/New_York,40.08333,-75.38333,United States
PORT CLARENCE,KPC,KPC,America/Anchorage,65.25,-166.85,United States
POINT BAKER,KPB,KPB,America/Anchorage,56.36667,-133.6167,United States
PUNTA DEL ESTE,PDP,PDP,America/Montevideo,-34.91667,-54.88333,Uruguay
KOPIAGO,KPA,KPA,Pacific/Port_Moresby,-5.58333,145.4167,Papua New Guinea
OUZINKIE,KOZ,KOZ,America/Anchorage,57.91667,-152.4833,United States
OLGA BAY,KOY,KOY,America/Anchorage,57.15,-154.2333,United States
KOKONAO,KOX,KOX,Europe/Berlin,-4.53333,136.55,Indonesia
GANZHOU,KOW,KOW,Asia/Chongqing,25.9,114.9167,China
KOKSHETAU,KOV,KOV,Asia/Qyzylorda,53.31667,69.4,Kazakhstan
KOULAMOUTOU,KOU,KOU,Africa/Libreville,-1.11667,12.5,Gabon
LUCKNOW,LKO,LKO,Asia/Calcutta,26.76667,80.88333,India
LEKNES,LKN,LKN,Europe/Oslo,68.15,13.01667,Norway
LAKSELV,LKL,LKL,Europe/Oslo,70.05,24.98333,Norway
KULIK LAKE,LKK,LKK,America/Anchorage,58.96667,-155.0833,United States
Laakirchen,,LKI,Europe/Vienna,47.58,13.49,Austria
LONG AKAH,LKH,,Asia/Kuala_Lumpur,3.3,114.7833,Malaysia
LOKICHOGIO,LKG,LKG,Africa/Nairobi,4.23333,34.35,Kenya
LAKELAND DOWNS,LKD,LKD,Australia/Brisbane,-16.16667,145.5,Australia
LEKANA,LKC,LKC,Africa/Brazzaville,-2.31667,14.6,Congo
LAKEBA ISLAND,LKB,LKB,Pacific/Fiji,-18.2,178.8333,Fiji
LARANTUKA,LKA,LKA,Asia/Makassar,-8.35,122.9833,Indonesia
Krems,,KRE,Europe/Vienna,,,Austria
Ljungby,,LJY,Europe/Stockholm,,,Sweden
Montague,,TGQ,America/Los_Angeles,43.25,-86.21,United States
LJUBLJANA,LJU,LJU,Europe/Ljubljana,46.21667,14.46667,Slovenia
LINDA DOWNS,LLP,LLP,Australia/Brisbane,-23.01667,138.7,Australia
PALOPO,LLO,,Asia/Makassar,-6.17556,120.4364,Indonesia
KELILA,LLN,LLN,Asia/Jayapura,-3.75,138.6667,Indonesia
Langenlonsheim,,LLM,Europe/Berlin,,,Germany
LISSADELL,LLL,LLL,Australia/Perth,-16.5,128.6667,Australia
LANKARAN,LLK,,Asia/Baku,38.75889,48.80639,Azerbaijan
LALIBELA,LLI,LLI,Africa/Addis_Ababa,12.01667,39.06667,Ethiopia
LAS LIMAS,LLH,LLH,America/Tegucigalpa,15.45,-87.9,Honduras
CHILLAGOE,LLG,LLG,Australia/Brisbane,-17.13333,144.5333,Australia
YONGZHOU,LLF,LLF,Asia/Shanghai,26.70083,111.9575,China
Lille,,LLE,Europe/Paris,50.38,3.04,France
LIBO,LLB,,Asia/Shanghai,25.45278,107.9619,China
LULEA,LLA,LLA,Europe/Stockholm,65.55,22.13333,Sweden
MENORCA,MAH,MAH,Europe/Madrid,39.86667,4.25,Spain
BRANDON,LKZ,BRA,Europe/London,52.45,0.61667,United Kingdom
LAKE MANYARA,LKY,LKY,Africa/Dar_es_Salaam,-3.58333,35.83333,"Tanzania, United Republic of"
Marble Hall,,MAH,Africa/Johannesburg,-24.57,29.18,South Africa
LEKHWAIR,LKW,,Asia/Muscat,22.80472,55.36583,Oman
LAKEVIEW,LKV,LKV,America/Los_Angeles,42.16667,-120.4,United States
LAKE TURKANA,LKU,LKU,Africa/Nairobi,3.41667,35.88333,Kenya
Aubigny-sur-Nere,,AYU,Europe/Paris,47.29,2.26,France
LAKESIDE,LKS,LKS,Europe/Prague,29.83333,-95.68333,United States
LAS KHOREH,LKR,LKR,Africa/Mogadishu,11.15,48.2,Somalia
LAKE PLACID,LKP,LKP,America/New_York,44.3,-73.98333,United States
MARSA BREGA,LMQ,LMQ,Africa/Tripoli,30.5,19.16667,Libya
LAMPEDUSA,LMP,LMP,Europe/Rome,35.49806,12.61833,Italy
LOSSIEMOUTH,LMO,LMO,Europe/London,57.71667,-3.3,United Kingdom
LIMBANG,LMN,LMN,Asia/Kuala_Lumpur,4.66667,115,Malaysia
LOS MOCHIS,LMM,LMM,America/Mazatlan,25.81667,-108.9833,Mexico
LAE ISLAND,LML,LML,Pacific/Majuro,8.91667,166.25,Marshall Islands
Limerick,,LMK,Europe/Dublin,,,Ireland
LUMI,LMI,LMI,Pacific/Port_Moresby,-3.48333,142.0333,Papua New Guinea
LIMON,LMH,LMH,America/Tegucigalpa,15.86667,-85.55,Honduras
LAMASSA,LMG,LMG,Pacific/Port_Moresby,-4.7,152.75,Papua New Guinea
LE MANS,LME,LME,Europe/Paris,47.94861,0.20167,France
LOS MENUCOS,LMD,LMD,America/Cordoba,-40.83333,-68.13333,Argentina
LA MACARENA,LMC,LMC,America/Bogota,3.31667,-73.9,Colombia
SALIMA,LMB,LMB,Africa/Blantyre,-13.75,34.56667,Malawi
LAKE MINCHUMINA,LMA,LMA,America/Anchorage,63.88333,-152.3167,United States
MOUNT HOLLY,LLY,LLY,America/New_York,39.98333,-74.78333,United States
LYNDONVILLE,LLX,LLX,America/New_York,44.5,-72.01667,United States
LILONGWE,LLW,LLW,Africa/Blantyre,-13.96667,33.7,Malawi
LULIANG,LLV,,Asia/Shanghai,37.68139,111.1425,China
ALLUITSUP PAA,LLU,LLU,America/Godthab,60.5,-45.58333,Greenland
LOBITO,LLT,,Africa/Luanda,-12.37111,13.53667,Angola
LAS LOMITAS,LLS,LLS,America/Cordoba,-24.7,-60.6,Argentina
Dell,,LLR,America/Denver,35.51,-90.02,United States
LONE ROCK,LNR,LNR,America/Chicago,43.18333,-90.2,United States
Long Lake,,LO3,America/New_York,43.58,-74.25,United States
LOANI,LNQ,LNQ,Pacific/Port_Moresby,-10.43333,150.15,Papua New Guinea
Live Oak,,LO2,America/New_York,39.16,-121.4,United States
WISE,LNP,LNP,America/New_York,36.98333,-82.56667,United States
LEONORA,LNO,LNO,Australia/Perth,-28.88333,121.3,Australia
WILLOUGHBY,LNN,LNN,America/New_York,41.63333,-81.41667,United States
LANGIMAR,LNM,LNM,Pacific/Port_Moresby,-7.21667,146.2,Papua New Guinea
Lensk,,LNK,Asia/Yakutsk,60.43,114.56,Russian Federation
LINCANG,LNJ,LNC,Asia/Chongqing,23.73889,100.0242,China
LONELY,LNI,LNI,America/Anchorage,70.91667,-153.25,United States
LAKE NASH,LNH,LNH,Australia/Darwin,-21,137.9167,Australia
LESE,LNG,LNG,Pacific/Port_Moresby,-8.16667,146.1167,Papua New Guinea
MUNBIL,LNF,LNF,Pacific/Port_Moresby,-4.86667,141.2167,Papua New Guinea
LONORORE,LNE,LNE,Pacific/Efate,-19.01667,170,Vanuatu
LANDER,LND,LND,Europe/Berlin,42.8,-108.6667,United States
LENGBATI,LNC,LNC,Pacific/Port_Moresby,-6.36667,147.3667,Papua New Guinea
Llanbedr,,LNB,Europe/London,52.49,-4.06,United Kingdom
PALMA,LMZ,LMZ,Africa/Maputo,-10.76667,40.48333,Mozambique
LAKE MURRAY,LMY,LMY,Pacific/Port_Moresby,-6.85,141.4167,Papua New Guinea
EL TRAPICHE,LMX,LMX,America/Bogota,3.05,-77.55,Colombia
KLAMATH FALLS,LMT,LMT,America/Los_Angeles,42.15,-121.7167,United States
LOUISVILLE,LMS,LMS,America/Chicago,33.15,-89.06667,United States
LIME ACRES,LMR,LMR,Africa/Johannesburg,-28.36667,23.45,South Africa
LANGKAWI,LGK,LGK,Asia/Kuala_Lumpur,6.36667,99.83333,Malaysia
DEADMANS CAY,LGI,LGI,America/Nassau,23.25,-75.13333,Bahamas
LEIGH CREEK,LGH,LGH,Australia/Adelaide,-30.46667,138.4167,Australia
LIEGE,LGG,LGG,Europe/Brussels,50.6375,5.44333,Belgium
LAKE GREGORY,LGE,,Australia/Perth,-20.13333,127.5667,Australia
LA GRANDE,LGD,LGD,America/Los_Angeles,45.31667,-118.0333,United States
LA GRANGE,LGC,LGC,America/New_York,33.01667,-85.08333,United States
LONG BEACH,LGB,LGB,America/Los_Angeles,33.81667,-118.15,United States
LOME,LFW,LFW,Africa/Lome,6.16667,1.25,Togo
LAFAYETTE,LFT,LFT,America/Chicago,30.2,-92,United States
Halle,,HAE,Europe/Berlin,,,Germany
LA FRIA,LFR,LFR,America/Caracas,8.28333,-72.28333,"Venezuela, Bolivarian Republic of"
LINFEN,LFQ,,Asia/Shanghai,36.13389,111.6408,China
LAKEFIELD,LFP,LFP,Australia/Brisbane,-14.91667,144.3333,Australia
KELAFO,LFO,LFO,Africa/Addis_Ababa,5.58333,44.18333,Ethiopia
LOUISBURG,LFN,LFN,America/New_York,36.1,-78.3,United States
LAMERD,LFM,LFM,Asia/Tehran,27.3675,53.2,"Iran, Islamic Republic of"
LUFKIN,LFK,LFK,America/Chicago,31.25,-94.75,United States
LAOHEKOU,LHK,LHK,Asia/Shanghai,32.26667,111.6333,China
LEREH,LHI,LHI,Asia/Jayapura,-3.13333,139.9,Indonesia
LIGHTNING RIDGE,LHG,LHG,Australia/Sydney,-29.4,147.9667,Australia
LAHORE,LHE,LHE,Asia/Karachi,31.53333,74.4,Pakistan
LINHAI,LHC,,America/Lima,28.88278,121.2428,China
LOST HARBOR,LHB,LHB,America/Anchorage,54.23333,-165.6,United States
LAHR,LHA,LHA,Europe/Berlin,48.36917,7.82778,Germany
LAGUNILLAS,LGY,LGY,America/Caracas,8.51667,-71.4,"Venezuela, Bolivarian Republic of"
LUGH GANANE,LGX,LGX,Africa/Mogadishu,3.8,42.05,Somalia
LOGAN,LGU,LGU,America/Denver,41.78333,-111.85,United States
LAS GAVIOTAS,LGT,LGT,America/Bogota,4.58333,-70.83333,Colombia
MALARGUE,LGS,LGS,America/Cordoba,-35.46667,-69.58333,Argentina
COCHRANE,LGR,COC,America/Cordoba,-47.33333,-72,Chile
LAGO AGRIO,LGQ,LGQ,America/Guayaquil,0.1,-76.88333,Ecuador
LEGASPI,LGP,LGP,Asia/Manila,13.16667,123.7333,Philippines
LANGEOOG,LGO,LGO,Europe/Berlin,53.75,7.48333,Germany
LINGA LINGA,LGN,LGN,Pacific/Port_Moresby,-5.68333,149.4167,Papua New Guinea
LAIAGAM,LGM,LGM,Pacific/Port_Moresby,-5.53333,143.4833,Papua New Guinea
LONG LELLANG,LGL,LGL,Asia/Kuala_Lumpur,3.41667,115.15,Malaysia
LIMA,LIM,LIM,America/Lima,-12.01667,-77.11667,Peru
LILLE,LIL,LIL,Europe/Paris,50.56333,3.08694,France
LIKIEP ISLAND,LIK,LIK,Pacific/Majuro,9.81667,169.3167,Marshall Islands
MULIA,LII,LII,Asia/Jayapura,-3.16667,136.1667,Indonesia
LIHUE,LIH,LIH,Pacific/Honolulu,21.98333,-159.35,United States
LIMOGES,LIG,LIG,Europe/Paris,45.86083,1.18028,France
LIFOU,LIF,LIF,Pacific/Noumea,-20.76667,167.2333,New Caledonia
LIBENGE,LIE,LIE,Africa/Kinshasa,3.63333,18.63333,"Congo, the Democratic Republic of the"
Lichtenburg,,LIC,Africa/Johannesburg,-26.09,26.1,South Africa
LIMBUNYA STATION,LIB,LIB,Australia/Darwin,-17.33333,129.8333,Australia
LIANGPING,LIA,LIA,Asia/Shanghai,30.81667,107.7,China
LANZHOU,LHW,LHW,Asia/Chongqing,36.01667,103.75,China
LOCK HAVEN,LHV,LHV,America/New_York,41.13333,-77.45,United States
LIANSHULU,LHU,,Africa/Windhoek,-18.1,23.39167,Namibia
LAS HERAS,LHS,LHS,America/Cordoba,-32.85,-68.81667,Argentina
LEHU,LHP,LHP,Pacific/Port_Moresby,-6.41667,155.7,Papua New Guinea
ANGLETON LAKE JACKSON,LJN,LJN,America/Chicago,29.03333,-95.45,United States
La Junta,,LJH,America/Denver,,,United States
LIJIANG,LJG,LJG,Asia/Chongqing,26.68333,100.25,China
LODJA,LJA,LJA,Africa/Lubumbashi,-3.45,23.61667,"Congo, the Democratic Republic of the"
KAADEDHDHOO ISLAND,KDM,KDM,Indian/Maldives,-0.48333,73,Maldives
Damme,,DAM,Europe/Berlin,52.31,8.12,Germany
LIMESTONE,LIZ,LIZ,America/New_York,46.95028,-67.88556,United States
HINESVILLE,LIY,LIY,America/New_York,31.78444,-81.64111,United States
LIKOMA ISLAND,LIX,LIX,Africa/Blantyre,-12.05,34.78333,Malawi
LOIKAW,LIW,LIW,Asia/Rangoon,19.68333,97.21667,Myanmar
LIVENGOOD,LIV,LIV,America/Anchorage,65.53333,-148.5333,United States
LITTLE ROCK,LIT,LIT,America/Chicago,34.73333,-92.23333,United States
LISBON,LIS,LIS,Europe/Lisbon,38.76667,-9.13333,Portugal
LIBERIA,LIR,LIR,America/Costa_Rica,10.63333,-85.43333,Costa Rica
LISALA,LIQ,LIQ,Africa/Kinshasa,2.21667,21.66667,"Congo, the Democratic Republic of the"
LINS,LIP,LIP,America/Sao_Paulo,-21.66667,-49.75,Brazil
LIMON,LIO,LIO,America/Costa_Rica,10.08333,-82.96667,Costa Rica
Line,,LIN,Europe/Prague,49.42,13.16,Czech Republic
A CORUNA,LCG,LCG,Europe/Madrid,43.30194,-8.37722,Spain
RIO DULCE,LCF,,America/Guatemala,15.66778,-88.94778,Guatemala
LA CEIBA,LCE,LCE,America/Tegucigalpa,15.75,-86.83333,Honduras
LOUIS TRICHARDT,LCD,LCD,Africa/Johannesburg,-23.01667,29.71667,South Africa
LECCE,LCC,LCC,Europe/Rome,40.23917,18.13333,Italy
PONTES E LACERDA,LCB,LCB,America/Campo_Grande,-13.8,-59.91667,Brazil
LARNACA,LCA,LCA,Asia/Nicosia,34.875,33.62472,Cyprus
LUCAPA,LBZ,LBZ,Africa/Luanda,-8.38333,20.66667,Angola
LA BAULE ESCOUBLAC,LBY,LBY,Europe/Paris,47.28944,-2.34639,France
Langres,,LAN,Europe/Paris,,,France
LUBANG,LBX,LBX,Asia/Manila,13.75,120.25,Philippines
LONG BAWAN,LBW,LBW,Asia/Makassar,3.88333,115.7,Indonesia
LIBREVILLE,LBV,LBV,Africa/Libreville,0.45,9.41667,Gabon
LABUAN,LBU,LBU,Asia/Kuala_Lumpur,5.3,115.25,Malaysia
LUMBERTON,LBT,LBT,America/New_York,34.6,-79.06667,United States
LABASA,LBS,LBS,Pacific/Fiji,-16.46667,179.3333,Fiji
TUCUMA,TUZ,TUZ,America/Boa_Vista,-6.73333,-51.15,Brazil
Liberec,,LBR,Europe/Prague,,,Czech Republic
LAMBARENE,LBQ,LBQ,Africa/Libreville,-0.71667,10.23333,Gabon
LONG BANGA,LBP,LBP,Asia/Kuala_Lumpur,3.2,115.4,Malaysia
LUSAMBO,LBO,LBO,Africa/Lubumbashi,-4.96667,23.38333,"Congo, the Democratic Republic of the"
LAKE BARINGO,LBN,LBN,Africa/Nairobi,0.66667,36.08333,Kenya
LUABO,LBM,LBM,Africa/Maputo,-18.5,36.16667,Mozambique
LIBERAL,LBL,LBL,America/Chicago,37.05,-100.9667,United States
LIBOI,LBK,LBK,Africa/Nairobi,0.4,40.95,Kenya
LABUAN BAJO,LBJ,LBJ,Asia/Makassar,-8.51667,119.8833,Indonesia
ALBI,LBI,LBI,Europe/Paris,43.91333,2.11667,France
LORD HOWE ISLAND,LDH,LDH,TimeZoneNotFound,-31.51667,159.05,Australia
LESHUKONSKOYE,LDG,LDG,Europe/Moscow,64.9,45.73667,Russian Federation
LOURDES TARBES,LDE,LDE,Europe/Paris,43.18556,-0.00278,France
LINDEMAN ISLAND,LDC,LDC,Australia/Brisbane,-20.45,149.05,Australia
LONDRINA,LDB,LDB,America/Sao_Paulo,-23.3,-51.21667,Brazil
MALDA,LDA,LDA,Asia/Calcutta,25.03333,88.15,India
London City Airport,LCY,LCT,Europe/London,51.3,0.03,United Kingdom
LONGYAN,LCX,LCX,Asia/Chongqing,25.67556,116.7456,China
LUCCA,LCV,LCV,Europe/Rome,43.82972,10.57889,Italy
LA CHORRERA,LCR,LCR,America/Bogota,-0.73333,-73.01667,Colombia
LAKE CITY,LCQ,LCQ,America/New_York,30.18972,-82.63972,United States
LONCOPUE,LCP,LCP,America/Cordoba,-38.08333,-70.66667,Argentina
LAGE,LCO,LCO,Africa/Brazzaville,-1.8,14.86667,Congo
Moquegua,,MOQ,America/Lima,-17.11,-70.56,Peru
BALCANOONA,LCN,LCN,Australia/Adelaide,-30.53333,139.3167,Australia
LA CUMBRE,LCM,LCM,America/Cordoba,-31,-64.53333,Argentina
PINAR DEL RIO,LCL,LCL,America/Havana,22.28333,-83.61667,Cuba
Rickenbacker International Apt,LCK,RIB,America/New_York,40,-82.53,United States
LODZ,LCJ,,Europe/Warsaw,51.72167,19.39806,Poland
LACONIA,LCI,LCI,America/New_York,43.56667,-71.41667,United States
LAKE CHARLES,LCH,LCH,America/Chicago,30.11667,-93.21667,United States
ALMERIA,LEI,LEI,Europe/Madrid,36.83333,-2.45,Spain
LE HAVRE,LEH,LEH,Europe/Paris,49.53389,0.08806,France
Legnica,,LEG,Europe/Warsaw,,,Poland
LEBAKENG,LEF,LEF,Africa/Maseru,-29.78333,28.58333,Lesotho
Leer,,LEE,Europe/Berlin,,,Germany
ST PETERSBURG,LED,LED,Europe/Moscow,59.80028,30.2625,Russian Federation
LENCOIS,LEC,,America/Fortaleza,-12.48,-41.28111,Brazil
Kirensk,,KIK,Asia/Irkutsk,57.46,108.06,Russian Federation
LEBANON,LEB,LEB,America/New_York,43.63333,-72.31667,United States
LEARMONTH,LEA,LEA,Australia/Perth,-22.23333,114.1,Australia
LONDOLOZI,LDZ,LDZ,Africa/Johannesburg,-24.8,31.5,South Africa
DERRY,LDY,LDY,Europe/London,55.05,-7.15,United Kingdom
ST LAURENT DU MARONI,LDX,,America/Cayenne,5.48333,-54.01667,French Guiana
LANSDOWNE STATION,LDW,LDW,Australia/Perth,-17.58333,126.8333,Australia
LANDIVISIAU,LDV,LDV,Europe/Paris,48.53028,-4.15167,France
LAHAD DATU,LDU,LDU,Asia/Kuala_Lumpur,5.05,118.3167,Malaysia
YICHUN HEILONGJIANG,LDS,,Asia/Shanghai,47.75139,129.0178,China
LAWDAR,LDR,LDR,Asia/Aden,13.88333,45.86667,Yemen
AURORA,LDO,LDO,America/Paramaribo,4.38333,-55.41667,Suriname
Linden,,LDN,America/Guyana,6,-58.17,Guyana
LUDINGTON,LDM,LDM,America/New_York,43.95,-86.45,United States
LIDKOPING,LDK,LDK,Europe/Stockholm,58.46667,13.16667,Sweden
LINDEN,LDJ,LDJ,America/New_York,40.63333,-74.25,United States
LINDI,LDI,LDI,Africa/Dar_es_Salaam,-9.83333,39.78333,"Tanzania, United Republic of"
LUMBO,LFB,,Africa/Maputo,-15.03333,40.66667,Mozambique
Babolsar,,BBL,Asia/Tehran,,,"Iran, Islamic Republic of"
LA ESPERANZA,LEZ,LEZ,America/Tegucigalpa,14.2,-88.16667,Honduras
LELYSTAD,LEY,LEY,Europe/Amsterdam,52.46667,5.53333,Netherlands
LEXINGTON,LEX,LEX,America/New_York,38.03333,-84.6,United States
LEWISTON,LEW,LEW,America/New_York,44.05,-70.28333,United States
LEVUKA,LEV,LEV,Pacific/Fiji,-17.68333,178.8333,Fiji
SEO DE URGEL,LEU,LEU,Europe/Madrid,42.33861,1.40917,Spain
LETICIA,LET,LET,America/Bogota,-4.2,-69.93333,Colombia
LESOBENG,LES,LES,Europe/Berlin,-29.8,28.13333,Lesotho
LEINSTER,LER,LER,Australia/Perth,-27.83333,120.6167,Australia
LAND&#39;S END,LEQ,LEQ,Europe/London,50.1,-5.66667,United Kingdom
LEOPOLDINA,LEP,LEP,America/Sao_Paulo,-21.5,-42.65,Brazil
LEKONI,LEO,,Africa/Libreville,-1.68333,14.3,Gabon
LEON,LEN,LEN,Europe/Madrid,42.58444,-5.65083,Spain
LEMMON,LEM,LEM,America/Denver,45.91667,-102.1,United States
GAPUWIYAK,LEL,LEL,Australia/Darwin,-12.21667,136.25,Australia
LABE,LEK,LEK,Africa/Conakry,11.31667,-12.3,Guinea
LEIPZIG/HALLE,LEJ,LEJ,Europe/Berlin,51.4325,12.24167,Germany
Melsbroek,,MBK,Europe/Brussels,50.55,4.29,Belgium
ROTORUA,ROT,ROT,Pacific/Auckland,-38.15,176.2667,New Zealand
LAE,LAE,LAE,Pacific/Port_Moresby,-6.73333,146.9833,Papua New Guinea
LUANDA,LAD,LAD,Africa/Luanda,-8.85,13.23333,Angola
LAYANG-LAYANG ISLAND,LAC,LAC,TimeZoneNotFound,7.41667,113.75,Malaysia
LAB LAB,LAB,LAB,Pacific/Port_Moresby,-5.63333,148.0667,Papua New Guinea
LAMAR,LAA,LAA,America/Denver,38.06667,-102.6833,United States
Park City,,PKC,America/Denver,,,United States
TAKU LODGE,TKL,TKL,America/Anchorage,58.48944,-133.9433,United States
NORTH PLATTE,LBF,LBF,America/Chicago,41.13333,-100.7,United States
LATROBE,LBE,LBE,America/New_York,40.28333,-79.4,United States
KHUJAND,LBD,LBD,Asia/Dushanbe,40.21667,69.7,Tajikistan
LUBBOCK,LBB,LBB,America/Chicago,33.66667,-101.8333,United States
LEEDS BRADFORD,LBA,LBA,Europe/London,53.86667,-1.65,United Kingdom
Lanzhou,,LAZ,Asia/Chongqing,36.04,103.51,China
LADYSMITH,LAY,LAY,Africa/Johannesburg,-28.58333,29.75,South Africa
LOS ANGELES,LAX,LAX,America/Los_Angeles,33.93333,-118.4,United States
LAWTON FORT SILL,LAW,LAW,America/Chicago,34.56667,-98.41667,United States
LAMU,LAU,LAU,Africa/Nairobi,-2.23333,40.85,Kenya
Latacunga,,LAT,America/Guayaquil,-0.56,-78.37,Ecuador
LAS VEGAS,LAS,LAS,America/Los_Angeles,36.08333,-115.1667,United States
LARAMIE,LAR,LAR,America/Denver,41.31667,-105.6667,United States
BEIDA,LAQ,LAQ,Africa/Tripoli,30.16667,21.66667,Libya
LA PAZ,LAP,LAP,America/Mazatlan,24.11667,-110.3167,Mexico
LAOAG,LAO,LAO,Asia/Manila,18.18333,120.5333,Philippines
LANSING,LAN,LAN,America/New_York,42.78333,-84.58333,United States
LOS ALAMOS,LAM,LAM,America/Denver,35.88333,-106.3167,United States
LAKELAND,LAL,LAL,America/New_York,28.08333,-81.95,United States
AKLAVIK,LAK,LAK,America/Edmonton,68.21667,-135,Canada
LAGES,LAJ,LAJ,America/Sao_Paulo,-27.8,-50.31667,Brazil
LANNION,LAI,LAI,Europe/Paris,48.755,-3.47444,France
LABUHA,LAH,LAH,Asia/Jayapura,-0.61667,127.4833,Indonesia
Landsberg,,LAG,Europe/Berlin,,,Germany
LAFAYETTE,LAF,LAF,America/New_York,40.41667,-86.93333,United States
Clamecy,,CCY,Europe/Paris,47.27,3.31,France
ROTUMA ISLAND,RTA,RTA,Pacific/Fiji,-12.5,177.0833,Fiji
Ras Tanura,,RTA,Asia/Riyadh,,,Saudi Arabia
Istres,,IST,Europe/Paris,43.3,4.58,France
Suwon,,SUO,Asia/Seoul,37.15,127.14,"Korea, Republic of"
Sandefjord,,SAD,Europe/Oslo,,,Norway
LAWAS,LWY,LWY,Asia/Kuala_Lumpur,4.85,115.4,Malaysia
LAWRENCEVILLE,LWV,LWV,America/Chicago,38.76667,-87.6,United States
LEWISTOWN,LWT,LWT,America/Denver,47.05,-109.4667,United States
LEWISTON,LWS,LWS,America/Los_Angeles,46.38333,-117.0333,United States
LEEUWARDEN,LWR,LWR,Europe/Amsterdam,53.21667,5.75,Netherlands
LVIV,LWO,LWO,Europe/Kiev,49.81667,23.95,Ukraine
GYUMRI,LWN,LWN,Asia/Yerevan,40.71667,43.83333,Armenia
LAWRENCE,LWM,LWM,America/New_York,42.71667,-71.11667,United States
WELLS,LWL,LWL,America/Los_Angeles,41.11667,-114.9667,United States
Lerwick,LWK,LER,Europe/London,,,United Kingdom
AHUAS,AHS,AHS,America/Tegucigalpa,15.43333,-84.41667,Honduras
LOWAI,LWI,LWI,Pacific/Port_Moresby,-6.31667,146.5833,Papua New Guinea
LAWN HILL,LWH,LWH,Australia/Brisbane,-18.63333,138.6333,Australia
LEWOLEBA,LWE,LWE,Asia/Makassar,-8.38333,123.4,Indonesia
LAWRENCE,LWC,LWC,America/Chicago,38.95,-95.28333,United States
LEWISBURG,LWB,LWB,America/New_York,37.78333,-80.33333,United States
Lake Wales,,LWA,America/New_York,,,United States
Monte Plata,,MPT,America/Santo_Domingo,18.48,-69.47,Dominican Republic
LEADVILLE,LXV,LXV,America/Denver,39.33333,-106.5,United States
LUKULU,LXU,LXU,Africa/Lusaka,-14.36667,23.26667,Zambia
LIMNOS,LXS,LXS,Europe/Athens,39.91694,25.23639,Greece
LUXOR,LXR,LXR,Africa/Cairo,25.68333,32.7,Egypt
LEXINGTON,LXN,LXN,America/Chicago,40.78333,-99.75,United States
LUANG NAMTHA,LXG,LXG,Asia/Vientiane,20.96667,101.4,Lao People&#39;s Democratic Republic
LHASA/LASA,LXA,LXA,Asia/Chongqing,29.66667,91.15,China
LYDD,LYX,LYX,Europe/London,50.95611,0.93917,United Kingdom
ELY,LYU,LYU,America/Chicago,47.9,-91.85,United States
LADY ELLIOT ISLAN,LYT,LYT,Australia/Brisbane,-24.11667,152.7,Australia
LYON,LYS,LYS,Europe/Paris,45.72556,5.08111,France
LONGYEARBYEN,LYR,,Arctic/Longyearbyen,78.2,15.66667,Norway
FAISALABAD,LYP,LYP,Asia/Karachi,31.51667,73,Pakistan
LYONS,LYO,LYO,America/Chicago,38.2,-98.2,United States
Lynden,,LYN,America/Los_Angeles,48.56,-122.26,United States
LINYI,LYI,LYI,Asia/Chongqing,37.18333,116.85,China
LYNCHBURG,LYH,LYH,America/New_York,37.33333,-79.2,United States
LIANYUNGANG,LYG,LYG,Asia/Chongqing,34.55,119.25,China
LYNEHAM,LYE,LYE,Europe/London,51.51667,-1.96667,United Kingdom
LYCKSELE,LYC,LYC,Europe/Stockholm,64.6,18.66667,Sweden
LITTLE CAYMAN,LYB,LYB,America/Cayman,19.66667,-80.08333,Cayman Islands
LUOYANG,LYA,LYA,Asia/Chongqing,34.68333,112.4667,China
NYINGCHI/LINZHI,LZY,LZY,Asia/Chongqing,29.62194,94.38861,China
LAWRENCEVILLE,LZU,,America/New_York,33.97806,-83.96222,United States
LIZARD ISLAND,LZR,LZR,Australia/Brisbane,-14.66667,145.4667,Australia
LUZHOU,LZO,LZO,Asia/Chongqing,28.88333,105.35,China
MATSU (NANGAN),LZN,,Asia/Taipei,26.15944,119.9583,"Taiwan, Province of China"
LUZAMBA,LZM,LZM,Africa/Luanda,-9.05,18.08333,Angola
LUOZI,LZI,LZI,Africa/Kinshasa,-4.95,14.13333,"Congo, the Democratic Republic of the"
LIUZHOU,LZH,LZH,Asia/Chongqing,24.36667,109.5333,China
Lezignan-Corbieres,,LZC,Europe/Paris,43.12,2.46,France
LUIZA,LZA,LZA,Africa/Lubumbashi,-7.18333,22.35,"Congo, the Democratic Republic of the"
LHOK SEUMAWE,LSW,LSW,Asia/Jakarta,5.21667,96.93333,Indonesia
LONG SUKANG,LSU,LSU,Asia/Kuala_Lumpur,4.55,115.5,Malaysia
LAUNCESTON,LST,LST,Australia/Melbourne,-41.55,147.2,Australia
TERRE DE HAUT,LSS,LSS,America/Guadeloupe,15.86667,-61.58333,Guadeloupe
LOS ANGELES,LSQ,LSQ,America/Santiago,-37.41667,-72.35,Chile
LAS PIEDRAS,LSP,LSP,America/Caracas,11.73333,-70.2,"Venezuela, Bolivarian Republic of"
LES SABLES,LSO,LSO,Europe/Paris,46.47694,-1.72278,France
LOS BANOS,LSN,LSN,America/Los_Angeles,37.06667,-120.85,United States
LONG SEMADO,LSM,LSM,Asia/Kuala_Lumpur,4.21667,115.6,Malaysia
LOS CHILES,LSL,LSL,America/Managua,11,-84.83333,Costa Rica
Lask,,LSK,Europe/Warsaw,51.35,19.08,Poland
LONG ISLAND,LSJ,LSJ,Pacific/Port_Moresby,-5.36667,147.0167,Papua New Guinea
Sumburgh,,LSI,Europe/London,59.52,-1.17,United Kingdom
LASHIO,LSH,LSH,Asia/Rangoon,22.96667,97.75,Myanmar
Fort Benning,,LSF,America/New_York,,,United States
LA CROSSE,LSE,LSE,America/Chicago,43.88333,-91.25,United States
LA SERENA,LSC,LSC,America/Santiago,-29.9,-71.3,Chile
LORDSBURG,LSB,LSB,America/Denver,32.41667,-108.6667,United States
KIRIWINA ISLAND,LSA,LSA,Pacific/Port_Moresby,-8.5,151.0833,Papua New Guinea
LATACUNGA,LTX,,America/Guayaquil,-0.90111,-78.6025,Ecuador
LEONARDTOWN,LTW,LTW,America/New_York,38.28333,-77.63333,United States
LOTUS VALE STATION,LTV,LTV,Australia/Brisbane,-17.08333,141.3667,Australia
LATUR,LTU,,Asia/Calcutta,18.41167,76.46444,India
ST TROPEZ,LTT,LTT,Europe/Paris,43.2,6.48333,France
ALTUS,LTS,LTS,America/Chicago,34.7,-99.33333,United States
Le Treport,,LTR,Europe/Paris,,,France
LE TOUQUET PARIS PLAGE,LTQ,LTQ,Europe/Paris,50.51472,1.6275,France
LYNDHURST STATION,LTP,LTP,Australia/Brisbane,-19.2,144.3833,Australia
LORETO,LTO,LTO,America/Mazatlan,26.01667,-111.3667,Mexico
Luton,LTN,LUT,Europe/London,,,United Kingdom
LETHEM,LTM,LTM,America/Guyana,3.4,-59.8,Guyana
LASTOURSVILLE,LTL,LTL,Africa/Libreville,-0.83333,12.71667,Gabon
LATAKIA,LTK,LTK,Asia/Damascus,35.41667,35.98333,Syrian Arab Republic
ALTAI,LTI,LTI,Asia/Ulaanbaatar,47.05,92.45,Mongolia
LATHROP WELLS,LTH,LTH,America/Los_Angeles,36.66667,-116.65,United States
LANGTANG,LTG,LTG,Asia/Singapore,1.28333,103.85,Nepal
LEITRE,LTF,LTF,Pacific/Port_Moresby,-2.83333,141.6167,Papua New Guinea
GHADAMES,LTD,LTD,Africa/Tripoli,30.16667,9.5,Libya
LAI,LTC,LTC,Africa/Ndjamena,9.41667,16.01667,Chad
LATROBE,LTB,LTB,Australia/Melbourne,-41.23333,146.4,Australia
TZANEEN,LTA,LTA,Africa/Johannesburg,-23.83333,30.15,South Africa
MALI LOSINJ,LSZ,LSZ,Europe/Zagreb,44.56694,14.39389,Croatia
LISMORE,LSY,LSY,Australia/Sydney,-28.83333,153.2667,Australia
LHOK SUKON,LSX,LSX,Asia/Jakarta,5.05,97.31667,Indonesia
LUXEMBOURG,LUX,LUX,Europe/Luxembourg,49.61667,6.2,Luxembourg
LUWUK,LUW,LUW,Asia/Makassar,-0.93333,122.7833,Indonesia
MATTOON,MTO,MTO,America/Chicago,39.48333,-88.28333,United States
Ludvika,,LUV,Europe/Stockholm,,,Sweden
LAURA,LUU,LUU,Australia/Brisbane,-15.66667,144.1667,Australia
NEW LAURA,LUT,LUT,Australia/Brisbane,-15.43333,144.8167,Australia
KOUMALA,KOL,KOL,Africa/Bangui,8.5,21.25,Central African Republic
LUSANGA,LUS,LUS,Africa/Kinshasa,-4.83333,18.73333,"Congo, the Democratic Republic of the"
CAPE LISBURNE,LUR,LUR,America/Anchorage,68.86667,-166.1,United States
SAN LUIS,LUQ,LUQ,America/Cordoba,-33.26667,-66.33333,Argentina
KALAUPAPA,LUP,LUP,Pacific/Honolulu,21.18333,-156.9667,United States
LUENA,LUO,LUO,Africa/Luanda,-11.75,19.86667,Angola
LUSAKA,LUN,LUN,Africa/Lusaka,-15.41667,28.33333,Zambia
MANGSHI,LUM,LUM,Asia/Chongqing,24.48333,98.51667,China
LAUREL,LUL,LUL,America/Chicago,31.7,-89.13333,United States
LA UNION,LUI,LUI,America/Tegucigalpa,15.13333,-86.58333,Honduras
LUDHIANA,LUH,LUH,Asia/Calcutta,30.9,75.85,India
LUGANO,LUG,LUG,Europe/Zurich,46.00417,8.91056,Switzerland
LUCENEC,LUE,LUE,Europe/Bratislava,48.35,19.73333,Slovakia
LUDERITZ,LUD,LUD,Africa/Windhoek,-26.66667,15.33333,Namibia
LAUCALA ISLAND,LUC,LUC,Pacific/Fiji,-16.75,179.4167,Fiji
LUMIDPAU,LUB,LUB,America/Guyana,2.4,-59.43333,Guyana
LUKLA,LUA,LUA,Asia/Katmandu,27.7,86.73333,Nepal
LAS VEGAS,LVS,LVS,America/Denver,35.65,-105.15,United States
LUCAS DO RIO VERDE,LVR,,America/Campo_Grande,-13.03722,-55.94222,Brazil
Riverside,,YRS,America/Los_Angeles,39.1,-94.36,United States
LAVAN ISLAND,LVP,LVP,Asia/Tehran,26.8,53.25,"Iran, Islamic Republic of"
LAVERTON,LVO,LVO,Australia/Perth,-28.63333,122.3667,Australia
LIVINGSTON,LVM,LVM,America/Denver,45.66667,-110.5667,United States
Luneville,,LVL,Europe/Paris,48.36,6.3,France
SAN TOME,SOM,SOM,America/Caracas,8.95,-64.15,"Venezuela, Bolivarian Republic of"
LIVERMORE,LVK,LVK,America/Los_Angeles,37.68333,-121.7667,United States
LIVINGSTONE,LVI,LVI,Africa/Lusaka,-17.81667,25.81667,Zambia
LIME VILLAGE,LVD,LVD,America/Anchorage,61.35,-155.4667,United States
SANTANA DO LIVRAMENTO,LVB,LVB,America/Montevideo,-30.85,-55.6,Brazil
LAVAL,LVA,LVA,Europe/Paris,48.03222,-0.74278,France
LUBLIN,LUZ,LUZ,Europe/Warsaw,51.23861,22.71333,Poland
LAGOS,LOS,LOA,Africa/Lagos,6.58333,3.33333,Nigeria
LOBATSE,LOQ,LOQ,Africa/Gaborone,-25.2,25.66667,Botswana
PRAYA,LOP,,Asia/Makassar,-8.75722,116.2767,Indonesia
LAGHOUAT,LOO,LOO,Africa/Algiers,33.83333,2.98333,Algeria
LONDON,LON,LON,Europe/London,51.5,-0.16667,United Kingdom
LAGOS DE MORENO,LOM,LOM,America/Mexico_City,21.35,-101.9167,Mexico
LOVELOCK,LOL,LOL,America/Los_Angeles,40.05,-118.5667,United States
LODWAR,LOK,LOK,Africa/Nairobi,3.1,36.71667,Kenya
LOJA,LOH,LOH,America/Guayaquil,-3.88333,-79.23333,Ecuador
LONGVIEW,LOG,LOG,America/Los_Angeles,46.11667,-122.8833,United States
LOEN ISLAND,LOF,LOF,Pacific/Majuro,7.8,168.2833,Marshall Islands
LOEI,LOE,LOE,Asia/Bangkok,17.45,101.7333,Thailand
LONGANA,LOD,LOD,Pacific/Efate,-15.36667,167.95,Vanuatu
LOCK,LOC,LOC,Australia/Adelaide,-33.56667,135.7667,Australia
LOS ANDES,LOB,,America/Santiago,-29.96667,-71.53333,Chile
LORRAINE,LOA,LOA,Australia/Brisbane,-19.08333,139.9667,Australia
Como,,OMO,Europe/Rome,,,Italy
LINZ,LNZ,LNZ,Europe/Vienna,48.23333,14.1875,Austria
LANAI CITY,LNY,LNY,Pacific/Honolulu,20.78333,-156.95,United States
SMOLENSK,LNX,LNX,Europe/Moscow,54.8,32.05,Russian Federation
LIHIR ISLAND,LNV,LNV,Pacific/Port_Moresby,-3.06667,152.6167,Papua New Guinea
Longuyon,,LNU,Europe/Paris,49.26,5.36,France
LANCASTER,LNS,LNS,America/New_York,40.11667,-76.3,United States
LAMPANG,LPT,LPT,Asia/Bangkok,18.3,99.51667,Thailand
LOPEZ ISLAND,LPS,LPS,America/Los_Angeles,48.48333,-122.9333,United States
LUANG PRABANG,LPQ,LPQ,Asia/Vientiane,19.9,102.15,Lao People&#39;s Democratic Republic
LAPPEENRANTA,LPP,LPP,Europe/Helsinki,61.05,28.15,Finland
LAPORTE,LPO,LPO,America/Chicago,41.6,-86.71667,United States
LERON PLAINS,LPN,LPN,Pacific/Port_Moresby,-6.71667,147.0167,Papua New Guinea
Laupheim,,LPM,Europe/Berlin,,,Germany
LIVERPOOL,LPL,LIV,Europe/London,53.33361,-2.84972,United Kingdom
LIPETSK,LPK,LPK,Europe/Moscow,52.61667,39.6,Russian Federation
LOS PIJIGUAOS,LPJ,LPJ,America/Caracas,7,-67.66667,"Venezuela, Bolivarian Republic of"
LINKOPING,LPI,LPI,Europe/Stockholm,58.4,15.51667,Sweden
Leopoldsburg,,LPG,Europe/Brussels,51.07,5.15,Belgium
LIUPANSHUI,LPF,,Asia/Shanghai,26.60861,104.9783,China
LA PRIMAVERA,LPE,LPE,America/Bogota,3.73333,-76.21667,Colombia
LA PEDRERA,LPD,LPD,America/Bogota,-1.3,-69.71667,Colombia
LOMPOC,LPC,LPC,America/Los_Angeles,34.66667,-120.4667,United States
Ocana,,OCA,Europe/Madrid,37.08,-2.43,Spain
LA PAZ,LPB,LPB,America/La_Paz,-16.5,-68.2,"Bolivia, Plurinational State of"
Lipa,,LPA,Asia/Manila,,,Philippines
LONDON,LOZ,LOZ,America/New_York,37.08333,-84.06667,United States
LOYENGALANI,LOY,LOY,Africa/Nairobi,2.75,36.71667,Kenya
LOS TABLONES,LOX,LOX,America/Guatemala,14.79278,-89.20278,Guatemala
LOUISA,LOW,LOW,America/New_York,38.03333,-82.61667,United States
MONCLOVA,LOV,LOV,America/Mexico_City,26.95,-101.4833,Mexico
LOCKPORT,LOT,LOT,America/Chicago,41.6,-88.05,United States
La Quiaca,,LQU,America/Cordoba,-22.06,-65.37,Argentina
Cascais,,CAS,Europe/Lisbon,38.42,-9.25,Portugal
QALAH-YE NOW,LQN,LQN,Asia/Kabul,34.95,63.66667,Afghanistan
PUERTO LEGUIZAMO,LQM,LQM,America/Bogota,-0.3,-74.58333,Colombia
PICKENS,LQK,LQK,America/New_York,34.81667,-82.7,United States
LE PUY,LPY,LPY,Europe/Paris,45.07972,3.76333,France
LIEPAJA,LPX,LPX,Europe/Riga,56.5175,21.09694,Latvia
LONG APUNG,LPU,LPU,Asia/Makassar,0.58333,115.6,Indonesia
LOS ROQUES,LRV,LRV,America/Caracas,11.83333,-66.75,"Venezuela, Bolivarian Republic of"
LAS CRUCES,LRU,LRU,America/Denver,32.3,-106.9333,United States
LORIENT,LRT,LRT,Europe/Paris,47.76056,-3.44,France
LEROS,LRS,LRS,Europe/Athens,37.185,26.80028,Greece
LAR,LRR,LRR,Asia/Tehran,27.67306,54.38694,"Iran, Islamic Republic of"
LAURIE RIVER,LRQ,LRQ,America/Winnipeg,56.25,-101.3,Canada
